category_name,product_name,order_city_en,order_country_en,shipping_mode,delivery_status,shipping_priority_level,delay_days,is_late_flag,total_sales,net_profit,latitude_dest,longitude_dest,resilience_score
Sporting Goods,Smart watch ,Tokyo,Japan,Second Class,Shipping canceled,High Risk,4,0,327.75,130.5800018,35.6803997,139.7690174,
Sporting Goods,Smart watch ,Mandurah,Australia,Second Class,Late delivery,High Risk,4,1,327.75,131.1699982,-32.5361038,115.7424077,67.75
Women's Apparel,Nike Men's Dri-FIT Victory Golf Polo,Murray Bridge,Australia,Second Class,Late delivery,High Risk,4,1,100.0,33.59999847,-35.1200511,139.2736963,70.43
Women's Apparel,Nike Men's Dri-FIT Victory Golf Polo,Raipur,India,Second Class,Late delivery,High Risk,4,1,100.0,6.150000095,26.0411637,74.01973,62.41
Cleats,Perfect Fitness Perfect Rip Deck,San Francisco,USA,Second Class,Late delivery,High Risk,4,1,119.9800034,30.5699997,37.7749295,-122.4194155,68.0
Cardio Equipment,Nike Men's Free 5.0+ Running Shoe,Nantes,France,Second Class,Late delivery,High Risk,4,1,299.9700012,76.04000092,47.218371,-1.553621,70.84
Trade-In,Glove It Women's Mod Oval 3-Zip Carry All Gol,Nice,France,Second Class,Late delivery,High Risk,4,1,65.97000122,7.760000229,43.7101728,7.261953200000001,48.46
Cardio Equipment,Nike Men's Free 5.0+ Running Shoe,Petapa,Guatemala,Second Class,Late delivery,High Risk,4,1,299.9700012,101.3899994,14.5813083,-90.5459822,71.09
Women's Apparel,Nike Men's Dri-FIT Victory Golf Polo,Mexico City,Mexico,Second Class,Late delivery,High Risk,4,1,150.0,43.65999985,19.4326077,-99.133208,70.05
Cardio Equipment,Nike Men's Free 5.0+ Running Shoe,Kuito,Angola,Second Class,Late delivery,High Risk,4,1,99.98999786,40.02000046,-12.3940412,16.9417632,
Men's Footwear,Nike Men's CJ Elite 2 TD Football Cleat,Khartoum,Sudan,Second Class,Late delivery,High Risk,4,1,129.9900055,44.59000015,15.597431,32.535587,
Cleats,Perfect Fitness Perfect Rip Deck,Khartoum,Sudan,Second Class,Late delivery,High Risk,4,1,59.99000168,24.60000038,15.597431,32.535587,
Cameras ,Web Camera,Halle,Germany,Second Class,Late delivery,High Risk,4,1,452.0400085,212.6399994,51.49535669999999,11.9662371,60.0
Cameras ,Web Camera,Portici,Italy,Second Class,Late delivery,High Risk,4,1,452.0400085,135.8300018,40.814162,14.3388452,61.76
Consumer Electronics,Industrial consumer electronics,Bielefeld,Germany,Second Class,Late delivery,High Risk,4,1,252.8800049,78.08000183,52.0302285,8.532470800000002,25.0
Consumer Electronics,Industrial consumer electronics,Laon,France,Second Class,Late delivery,High Risk,4,1,252.8800049,22.76000023,50.5732769,2.3244679,40.0
Consumer Electronics,Industrial consumer electronics,Edinburgh,United Kingdom,Second Class,Late delivery,High Risk,4,1,252.8800049,60.86999893,55.953252,-3.188267,73.33
Consumer Electronics,Industrial consumer electronics,Wilhelmshaven,Germany,Second Class,Late delivery,High Risk,4,1,252.8800049,62.20999908,53.53234029999999,8.1068722,25.0
Baseball & Softball,adidas Men's F10 Messi TRX FG Soccer Cleat,Stockholm,Sweden,Second Class,Late delivery,High Risk,4,1,59.99000168,16.34000015,59.3327036,18.0656255,
Sporting Goods,Smart watch ,Qingdao,China,Second Class,Late delivery,High Risk,4,1,327.75,81.94000244,36.0662299,120.38299,62.22
Sporting Goods,Smart watch ,Bandung,Indonesia,Second Class,Late delivery,High Risk,4,1,327.75,-71.30000305,-6.9174639,107.6191228,70.0
Sporting Goods,Smart watch ,Balikpapan,Indonesia,Second Class,Late delivery,High Risk,4,1,327.75,131.6900024,-1.2379274,116.8528526,70.0
Sporting Goods,Smart watch ,Shenyang,China,Second Class,Late delivery,High Risk,4,1,327.75,-199.3999939,41.804778,123.432968,62.22
Sporting Goods,Smart watch ,Rajkot,India,Second Class,Late delivery,High Risk,4,1,327.75,-146.0099945,22.3038945,70.80215989999999,64.18
Sporting Goods,Smart watch ,Shantou,China,Second Class,Late delivery,High Risk,4,1,327.75,146.1399994,23.3534999,116.68221,62.22
Women's Apparel,Nike Men's Dri-FIT Victory Golf Polo,Petapa,Guatemala,Second Class,Late delivery,High Risk,4,1,150.0,57.59999847,14.5813083,-90.5459822,78.0
Women's Apparel,Nike Men's Dri-FIT Victory Golf Polo,Tipitapa,Nicaragua,Second Class,Late delivery,High Risk,4,1,150.0,12.71000004,12.2722898,-86.05296039999999,70.57
Shop By Sport,Under Armour Girls' Toddler Spine Surge Runni,Manukau City,New Zealand,Second Class,Late delivery,High Risk,4,1,119.9700012,35.33000183,-36.991461,174.8733999,52.78
Cleats,Perfect Fitness Perfect Rip Deck,Brisbane,Australia,Second Class,Late delivery,High Risk,4,1,179.9700012,-102.0299988,-27.4704528,153.0260341,66.97
Tennis & Racquet,Nike Men's Comfort 2 Slide,San Francisco,USA,Second Class,Late delivery,High Risk,4,1,134.9700012,34.41999817,37.7749295,-122.4194155,45.0
Women's Apparel,Nike Men's Dri-FIT Victory Golf Polo,Monroe,USA,Second Class,Late delivery,High Risk,4,1,150.0,13.94999981,34.9854275,-80.5495112,66.26
Cardio Equipment,Nike Men's Free 5.0+ Running Shoe,Wiesbaden,Germany,Second Class,Late delivery,High Risk,4,1,399.9599915,138.5899963,50.0782184,8.239760799999999,69.49
Cleats,Perfect Fitness Perfect Rip Deck,Zapopan,Mexico,Second Class,Late delivery,High Risk,4,1,239.9600067,98.76999664,20.6719563,-103.416501,65.53
Accessories,Team Golf St. Louis Cardinals Putter Grip,Perth,Australia,Second Class,Late delivery,High Risk,4,1,99.95999908,-76.76999664,-31.9513993,115.8616783,64.0
Cleats,Perfect Fitness Perfect Rip Deck,Philadelphia,USA,Second Class,Late delivery,High Risk,4,1,239.9600067,67.48999786,39.9525839,-75.1652215,68.0
Shop By Sport,Under Armour Girls' Toddler Spine Surge Runni,Monroe,USA,Second Class,Late delivery,High Risk,4,1,159.9600067,48.04000092,34.9854275,-80.5495112,67.9
Women's Apparel,Nike Men's Dri-FIT Victory Golf Polo,Monroe,USA,Second Class,Late delivery,High Risk,4,1,200.0,52.70000076,34.9854275,-80.5495112,66.26
Cleats,Perfect Fitness Perfect Rip Deck,The Hague,Netherlands,Second Class,Late delivery,High Risk,4,1,299.9500122,18.67000008,52.0704978,4.3006999,57.21
Cleats,Perfect Fitness Perfect Rip Deck,Vienna,Austria,Second Class,Late delivery,High Risk,4,1,299.9500122,84.15000153,48.20806959999999,16.3713095,56.4
Women's Apparel,Nike Men's Dri-FIT Victory Golf Polo,Nantes,France,Second Class,Late delivery,High Risk,4,1,250.0,102.3799973,47.218371,-1.553621,69.85
Women's Apparel,Nike Men's Dri-FIT Victory Golf Polo,Nantes,France,Second Class,Late delivery,High Risk,4,1,250.0,84.37999725,47.218371,-1.553621,69.85
Women's Apparel,Nike Men's Dri-FIT Victory Golf Polo,The Hague,Netherlands,Second Class,Late delivery,High Risk,4,1,250.0,-170.0,52.0704978,4.3006999,69.35
Women's Apparel,Nike Men's Dri-FIT Victory Golf Polo,Wiesbaden,Germany,Second Class,Late delivery,High Risk,4,1,250.0,-5.130000114,50.0782184,8.239760799999999,69.27
Electronics,Under Armour Kids' Mercenary Slide,Vantaa,Finland,Second Class,Late delivery,High Risk,4,1,27.98999977,-1.389999986,60.29335239999999,25.0377686,
Men's Footwear,Nike Men's CJ Elite 2 TD Football Cleat,Duisburg,Germany,Second Class,Late delivery,High Risk,4,1,129.9900055,-23.79000092,51.4344079,6.762329299999999,67.65
Men's Footwear,Nike Men's CJ Elite 2 TD Football Cleat,Sheffield,United Kingdom,Second Class,Late delivery,High Risk,4,1,129.9900055,16.72999954,53.38112899999999,-1.470085,58.25
Cleats,Perfect Fitness Perfect Rip Deck,Nice,France,Second Class,Late delivery,High Risk,4,1,59.99000168,-45.09000015,43.7101728,7.261953200000001,66.07
Men's Footwear,Nike Men's CJ Elite 2 TD Football Cleat,Lowestoft,United Kingdom,Second Class,Late delivery,High Risk,4,1,129.9900055,63.04999924,52.48113799999999,1.753449,58.25
Men's Footwear,Nike Men's CJ Elite 2 TD Football Cleat,Hamburg,Germany,Second Class,Late delivery,High Risk,4,1,129.9900055,37.83000183,53.5488282,9.9871703,67.65
Men's Footwear,Nike Men's CJ Elite 2 TD Football Cleat,Strasbourg,France,Second Class,Late delivery,High Risk,4,1,129.9900055,54.90999985,48.5734053,7.752111299999999,63.12
Men's Footwear,Nike Men's CJ Elite 2 TD Football Cleat,Hamburg,Germany,Second Class,Late delivery,High Risk,4,1,129.9900055,-28.07999992,53.5488282,9.9871703,67.65
Cleats,Perfect Fitness Perfect Rip Deck,Stockholm,Sweden,Second Class,Late delivery,High Risk,4,1,59.99000168,28.35000038,59.3327036,18.0656255,86.09
Men's Footwear,Nike Men's CJ Elite 2 TD Football Cleat,Six-Fours-les-Plages,France,Second Class,Late delivery,High Risk,4,1,129.9900055,7.739999771,43.093062,5.839225,63.12
Men's Footwear,Nike Men's CJ Elite 2 TD Football Cleat,Rennes,France,Second Class,Late delivery,High Risk,4,1,129.9900055,55.27999878,48.117266,-1.6777926,63.12
Men's Footwear,Nike Men's CJ Elite 2 TD Football Cleat,Capannori,Italy,Second Class,Late delivery,High Risk,4,1,129.9900055,42.31000137,43.8460411,10.5737909,63.3
Men's Footwear,Nike Men's CJ Elite 2 TD Football Cleat,Palaiseau,France,Second Class,Late delivery,High Risk,4,1,129.9900055,36.27000046,48.7146541,2.2483819,63.12
Men's Footwear,Nike Men's CJ Elite 2 TD Football Cleat,Redditch,United Kingdom,Second Class,Late delivery,High Risk,4,1,129.9900055,28.38999939,52.30897,-1.940936,58.25
Men's Footwear,Nike Men's CJ Elite 2 TD Football Cleat,Leeds,United Kingdom,Second Class,Late delivery,High Risk,4,1,129.9900055,-90.73000336,53.8007554,-1.5490774,58.25
Men's Footwear,Nike Men's CJ Elite 2 TD Football Cleat,Plymouth,United Kingdom,Second Class,Late delivery,High Risk,4,1,129.9900055,36.66999817,50.3754565,-4.1426565,58.25
Men's Footwear,Nike Men's CJ Elite 2 TD Football Cleat,Stockholm,Sweden,Second Class,Late delivery,High Risk,4,1,129.9900055,8.869999886,59.3327036,18.0656255,50.0
Men's Footwear,Nike Men's CJ Elite 2 TD Football Cleat,Nacka,Sweden,Second Class,Late delivery,High Risk,4,1,129.9900055,7.210000038,59.3092328,18.2705343,50.0
Men's Footwear,Nike Men's CJ Elite 2 TD Football Cleat,West Bromwich,United Kingdom,Second Class,Late delivery,High Risk,4,1,129.9900055,33.16999817,52.517664,-1.995159,58.25
Men's Footwear,Nike Men's CJ Elite 2 TD Football Cleat,Rome,Italy,Second Class,Late delivery,High Risk,4,1,129.9900055,-34.3199997,41.8967068,12.4822025,63.3
Men's Footwear,Nike Men's CJ Elite 2 TD Football Cleat,West Bromwich,United Kingdom,Second Class,Late delivery,High Risk,4,1,129.9900055,42.40999985,52.517664,-1.995159,58.25
Men's Footwear,Nike Men's CJ Elite 2 TD Football Cleat,Reims,France,Second Class,Late delivery,High Risk,4,1,129.9900055,-33.93000031,49.258329,4.031696,63.12
Crafts,Porcelain crafts,Cognac,France,Second Class,Late delivery,High Risk,4,1,461.480011,145.3699951,45.6902857,-0.3290863,52.35
Sporting Goods,Smart watch ,Daqing,China,Second Class,Late delivery,High Risk,4,1,327.75,95.18000031,46.58757989999999,125.10307,62.22
Sporting Goods,Smart watch ,Mackay,Australia,Second Class,Late delivery,High Risk,4,1,327.75,-7.869999886,-21.1433971,149.1868281,67.75
Sporting Goods,Smart watch ,Bandung,Indonesia,Second Class,Late delivery,High Risk,4,1,327.75,-117.9899979,-6.9174639,107.6191228,70.0
Sporting Goods,Smart watch ,Rangoon,Myanmar (Burma),Second Class,Late delivery,High Risk,4,1,327.75,-27.53000069,16.9143488,96.1526985,68.0
Sporting Goods,Smart watch ,Tongchuan,China,Second Class,Late delivery,High Risk,4,1,327.75,142.5700073,31.2147299,107.50455,62.22
Cleats,Perfect Fitness Perfect Rip Deck,Managua,Nicaragua,Second Class,Late delivery,High Risk,4,1,299.9500122,-59.38999939,12.1149926,-86.2361744,70.53
Cleats,Perfect Fitness Perfect Rip Deck,Managua,Nicaragua,Second Class,Late delivery,High Risk,4,1,299.9500122,-244.8600006,12.1149926,-86.2361744,70.53
Cleats,Perfect Fitness Perfect Rip Deck,Petapa,Guatemala,Second Class,Late delivery,High Risk,4,1,299.9500122,99.20999908,14.5813083,-90.5459822,73.5
Cleats,Perfect Fitness Perfect Rip Deck,San Salvador,El Salvador,Second Class,Late delivery,High Risk,4,1,299.9500122,71.38999939,13.6929403,-89.2181911,60.0
Shop By Sport,Under Armour Girls' Toddler Spine Surge Runni,San Salvador,El Salvador,Second Class,Late delivery,High Risk,4,1,199.9499969,87.33999634,13.6929403,-89.2181911,68.91
Cardio Equipment,Nike Men's Free 5.0+ Running Shoe,Murray Bridge,Australia,Second Class,Late delivery,High Risk,4,1,499.9500122,128.6900024,-35.1200511,139.2736963,69.2
Shop By Sport,Under Armour Girls' Toddler Spine Surge Runni,San Francisco,USA,Second Class,Late delivery,High Risk,4,1,199.9499969,9.0,37.7749295,-122.4194155,67.9
Women's Apparel,Nike Men's Dri-FIT Victory Golf Polo,Moreno Valley,USA,Second Class,Late delivery,High Risk,4,1,250.0,35.09999847,33.9424658,-117.2296717,66.26
Accessories,Team Golf Pittsburgh Steelers Putter Grip,Philadelphia,USA,Second Class,Late delivery,High Risk,4,1,124.9499969,39.38999939,39.9525839,-75.1652215,73.58
Men's Footwear,Nike Men's CJ Elite 2 TD Football Cleat,London,United Kingdom,Second Class,Late delivery,High Risk,4,1,129.9900055,12.18999958,51.5072178,-0.1275862,58.25
Men's Footwear,Nike Men's CJ Elite 2 TD Football Cleat,London,United Kingdom,Second Class,Late delivery,High Risk,4,1,129.9900055,12.03999996,51.5072178,-0.1275862,58.25
Men's Footwear,Nike Men's CJ Elite 2 TD Football Cleat,The White Mesnil,France,Second Class,Late delivery,High Risk,4,1,129.9900055,52.22999954,48.8499198,2.6370411,63.12
Men's Footwear,Nike Men's CJ Elite 2 TD Football Cleat,Antony,France,Second Class,Late delivery,High Risk,4,1,129.9900055,9.380000114,48.75342149999999,2.3050433,63.12
Men's Footwear,Nike Men's CJ Elite 2 TD Football Cleat,Aylesbury,United Kingdom,Second Class,Late delivery,High Risk,4,1,129.9900055,11.43999958,51.8176538,-0.8192387999999999,58.25
Men's Footwear,Nike Men's CJ Elite 2 TD Football Cleat,The White Mesnil,France,Second Class,Late delivery,High Risk,4,1,129.9900055,30.15999985,48.8499198,2.6370411,63.12
Cleats,Perfect Fitness Perfect Rip Deck,Stuttgart,Germany,Second Class,Late delivery,High Risk,4,1,59.99000168,14.61999989,48.7758459,9.1829321,65.53
Shop By Sport,Under Armour Girls' Toddler Spine Surge Runni,Turin,Italy,Second Class,Late delivery,High Risk,4,1,39.99000168,3.519999981,45.0703155,7.6868552,65.91
Women's Apparel,Nike Men's Dri-FIT Victory Golf Polo,Edinburgh,United Kingdom,Second Class,Late delivery,High Risk,4,1,50.0,-8.069999695,55.953252,-3.188267,67.74
Shop By Sport,Under Armour Girls' Toddler Spine Surge Runni,Rennes,France,Second Class,Late delivery,High Risk,4,1,39.99000168,12.73999977,48.117266,-1.6777926,71.24
Women's Apparel,Nike Men's Dri-FIT Victory Golf Polo,Ajaccio,France,Second Class,Late delivery,High Risk,4,1,50.0,21.14999962,41.919229,8.738635,69.85
Girls' Apparel,Nike Men's Deutschland Weltmeister Winners Bl,Ingolstadt,Germany,Second Class,Late delivery,High Risk,4,1,30.0,1.909999967,48.7667395,11.4226498,50.0
Shop By Sport,Under Armour Girls' Toddler Spine Surge Runni,Six-Fours-les-Plages,France,Second Class,Late delivery,High Risk,4,1,39.99000168,5.099999905,43.093062,5.839225,71.24
Kids' Golf Clubs,Mio ALPHA Heart Rate Monitor/Sport Watch,Mantes-la-Jolie,France,Second Class,Late delivery,High Risk,4,1,199.0,-4.909999847,48.9896249,1.7151582,47.5
Fishing,Field & Stream Sportsman 16 Gun Fire Safe,Rennes,France,Second Class,Late delivery,High Risk,4,1,399.980011,-679.9699707,48.117266,-1.6777926,61.2
Camping & Hiking,Diamondback Women's Serene Classic Comfort Bi,Reims,France,Second Class,Late delivery,High Risk,4,1,299.980011,136.7599945,49.258329,4.031696,62.03
Fishing,Field & Stream Sportsman 16 Gun Fire Safe,Edinburgh,United Kingdom,Second Class,Late delivery,High Risk,4,1,399.980011,-268.7900085,55.953252,-3.188267,66.18
Camping & Hiking,Diamondback Women's Serene Classic Comfort Bi,Marseille,France,Second Class,Late delivery,High Risk,4,1,299.980011,-12.67000008,43.3025742,5.369074299999999,62.03
Fishing,Field & Stream Sportsman 16 Gun Fire Safe,Antony,France,Second Class,Late delivery,High Risk,4,1,399.980011,129.7899933,48.75342149999999,2.3050433,61.2
Camping & Hiking,Diamondback Women's Serene Classic Comfort Bi,Aylesbury,United Kingdom,Second Class,Late delivery,High Risk,4,1,299.980011,60.13000107,51.8176538,-0.8192387999999999,62.27
Camping & Hiking,Diamondback Women's Serene Classic Comfort Bi,Burgos,Spain,Second Class,Late delivery,High Risk,4,1,299.980011,133.2400055,42.3504659,-3.689354499999999,57.21
Camping & Hiking,Diamondback Women's Serene Classic Comfort Bi,Nacka,Sweden,Second Class,Late delivery,High Risk,4,1,299.980011,111.5899963,59.3092328,18.2705343,60.0
Fishing,Field & Stream Sportsman 16 Gun Fire Safe,Madrid,Spain,Second Class,Late delivery,High Risk,4,1,399.980011,-91.0,40.41672790000001,-3.7032905,63.1
Fishing,Field & Stream Sportsman 16 Gun Fire Safe,Corbeil-Essonnes,France,Second Class,Late delivery,High Risk,4,1,399.980011,167.4299927,48.6102599,2.474805,61.2
Fishing,Field & Stream Sportsman 16 Gun Fire Safe,Stockholm,Sweden,Second Class,Late delivery,High Risk,4,1,399.980011,176.3899994,59.3327036,18.0656255,45.0
Fishing,Field & Stream Sportsman 16 Gun Fire Safe,Nice,France,Second Class,Late delivery,High Risk,4,1,399.980011,4.320000172,43.7101728,7.261953200000001,61.2
Fishing,Field & Stream Sportsman 16 Gun Fire Safe,Nice,France,Second Class,Late delivery,High Risk,4,1,399.980011,118.9700012,43.7101728,7.261953200000001,61.2
Fishing,Field & Stream Sportsman 16 Gun Fire Safe,West Bromwich,United Kingdom,Second Class,Late delivery,High Risk,4,1,399.980011,120.5100021,52.517664,-1.995159,66.18
Camping & Hiking,Diamondback Women's Serene Classic Comfort Bi,Duisburg,Germany,Second Class,Late delivery,High Risk,4,1,299.980011,64.73999786,51.4344079,6.762329299999999,64.84
Fishing,Field & Stream Sportsman 16 Gun Fire Safe,Capannori,Italy,Second Class,Late delivery,High Risk,4,1,399.980011,-885.5599976,43.8460411,10.5737909,45.88
Fishing,Field & Stream Sportsman 16 Gun Fire Safe,Capannori,Italy,Second Class,Late delivery,High Risk,4,1,399.980011,116.1500015,43.8460411,10.5737909,45.88
Fishing,Field & Stream Sportsman 16 Gun Fire Safe,The White Mesnil,France,Second Class,Late delivery,High Risk,4,1,399.980011,87.0,48.8499198,2.6370411,61.2
Books ,Sports Books ,Essen,Germany,Second Class,Late delivery,High Risk,4,1,31.07999992,6.760000229,51.4575573,7.0224632,70.0
DVDs,DVDs ,Reims,France,Second Class,Late delivery,High Risk,4,1,164.3800049,32.22000122,49.258329,4.031696,52.0
CDs ,CDs of rock,Exeter,United Kingdom,Second Class,Late delivery,High Risk,4,1,11.28999996,-16.79000092,50.72603669999999,-3.5274889,
DVDs,DVDs ,Dublin,Ireland,Second Class,Late delivery,High Risk,4,1,164.3800049,16.15999985,53.3498053,-6.2603097,
Computers,Dell Laptop,Vienna,Austria,Second Class,Late delivery,High Risk,4,1,1500.0,281.25,48.20806959999999,16.3713095,
Cleats,Perfect Fitness Perfect Rip Deck,Reims,France,Second Class,Late delivery,High Risk,4,1,59.99000168,-41.99000168,49.258329,4.031696,66.07
Men's Footwear,Nike Men's CJ Elite 2 TD Football Cleat,Herford,Germany,Second Class,Late delivery,High Risk,4,1,129.9900055,-201.4799957,52.1180196,8.677477200000002,67.65
Crafts,Porcelain crafts,Langenfeld,Germany,Second Class,Late delivery,High Risk,4,1,461.480011,210.3899994,51.1191898,6.951266299999999,
Men's Footwear,Nike Men's CJ Elite 2 TD Football Cleat,Chaumont,France,Second Class,Late delivery,High Risk,4,1,129.9900055,-91.47000122,48.113748,5.1392559,63.12
Men's Footwear,Nike Men's CJ Elite 2 TD Football Cleat,Espoo,Finland,Second Class,Late delivery,High Risk,4,1,129.9900055,50.09999847,60.2054911,24.6559001,77.0
Women's Apparel,Nike Men's Dri-FIT Victory Golf Polo,Colchester,United Kingdom,Second Class,Late delivery,High Risk,4,1,50.0,14.02999973,51.895927,0.8918740000000001,67.74
Fishing,Field & Stream Sportsman 16 Gun Fire Safe,Colchester,United Kingdom,Second Class,Late delivery,High Risk,4,1,399.980011,128.4299927,51.895927,0.8918740000000001,66.18
Camping & Hiking,Diamondback Women's Serene Classic Comfort Bi,Reims,France,Second Class,Late delivery,High Risk,4,1,299.980011,-76.48999786,49.258329,4.031696,62.03
Camping & Hiking,Diamondback Women's Serene Classic Comfort Bi,Espoo,Finland,Second Class,Late delivery,High Risk,4,1,299.980011,-418.1700134,60.2054911,24.6559001,
Fishing,Field & Stream Sportsman 16 Gun Fire Safe,Espoo,Finland,Second Class,Late delivery,High Risk,4,1,399.980011,-251.5599976,60.2054911,24.6559001,
Fishing,Field & Stream Sportsman 16 Gun Fire Safe,Chaumont,France,Second Class,Late delivery,High Risk,4,1,399.980011,-273.2099915,48.113748,5.1392559,61.2
Cardio Equipment,Nike Men's Free 5.0+ Running Shoe,Santo Domingo,Dominican Republic,Second Class,Late delivery,High Risk,4,1,99.98999786,25.92000008,18.4626178,-69.93609239999999,60.53
Cardio Equipment,Nike Men's Free 5.0+ Running Shoe,Santo Domingo,Dominican Republic,Second Class,Late delivery,High Risk,4,1,99.98999786,23.75,18.4626178,-69.93609239999999,60.53
Cleats,Perfect Fitness Perfect Rip Deck,Santo Domingo,Dominican Republic,Second Class,Late delivery,High Risk,4,1,59.99000168,17.39999962,18.4626178,-69.93609239999999,70.93
Sporting Goods,Smart watch ,Perth,Australia,Second Class,Late delivery,High Risk,4,1,327.75,149.4499969,-31.9513993,115.8616783,67.75
Hockey,Nike Dri-FIT Crew Sock 6 Pack,Sanliurfa,Türkiye,Second Class,Late delivery,High Risk,4,1,22.0,4.789999962,37.1674039,38.7955149,72.94
Hockey,Nike Dri-FIT Crew Sock 6 Pack,Ankara,Türkiye,Second Class,Late delivery,High Risk,4,1,44.0,2.160000086,39.9333635,32.8597419,72.94
Hockey,Nike Dri-FIT Crew Sock 6 Pack,Kryvyi Rih,Ukraine,Second Class,Late delivery,High Risk,4,1,22.0,7.550000191,47.910483,33.391783,
Hockey,Nike Dri-FIT Crew Sock 6 Pack,Shiraz,Iran,Second Class,Late delivery,High Risk,4,1,66.0,29.11000061,29.5926119,52.5835646,
Hockey,Nike Dri-FIT Crew Sock 6 Pack,San Francisco,USA,Second Class,Shipping canceled,High Risk,4,0,66.0,29.11000061,37.7749295,-122.4194155,70.65
Hockey,Nike Dri-FIT Crew Sock 6 Pack,Medina,USA,Second Class,Late delivery,High Risk,4,1,110.0,-49.54999924,41.143245,-81.8552196,70.65
Hockey,Nike Dri-FIT Crew Sock 6 Pack,Sydney,Australia,Second Class,Late delivery,High Risk,4,1,44.0,15.17000008,-33.8688197,151.2092955,60.31
Hockey,Nike Dri-FIT Crew Sock 6 Pack,Moradabad,India,Second Class,Late delivery,High Risk,4,1,88.0,24.02000046,28.8386481,78.7733286,48.7
Hockey,Nike Dri-FIT Crew Sock 6 Pack,Melbourne,Australia,Second Class,Late delivery,High Risk,4,1,22.0,-1.049999952,-37.8136276,144.9630576,60.31
Hockey,Nike Dri-FIT Crew Sock 6 Pack,Gateshead,United Kingdom,Second Class,Late delivery,High Risk,4,1,88.0,23.95999908,54.95268,-1.603411,67.5
Men's Footwear,Nike Men's CJ Elite 2 TD Football Cleat,Arequipa,Peru,Second Class,Late delivery,High Risk,4,1,129.9900055,-84.48999786,-16.4057001,-71.5400994,68.89
Men's Footwear,Nike Men's CJ Elite 2 TD Football Cleat,Santo Domingo,Dominican Republic,Second Class,Late delivery,High Risk,4,1,129.9900055,-318.480011,18.4626178,-69.93609239999999,45.12
Men's Footwear,Nike Men's CJ Elite 2 TD Football Cleat,Santo Domingo,Dominican Republic,Second Class,Late delivery,High Risk,4,1,129.9900055,-208.0500031,18.4626178,-69.93609239999999,45.12
Men's Footwear,Nike Men's CJ Elite 2 TD Football Cleat,Lion,Mexico,Second Class,Late delivery,High Risk,4,1,129.9900055,34.04000092,21.1250077,-101.6859605,54.48
Men's Footwear,Nike Men's CJ Elite 2 TD Football Cleat,Cordova,Mexico,Second Class,Late delivery,High Risk,4,1,129.9900055,18.90999985,18.8838909,-96.9237751,54.48
Cleats,Perfect Fitness Perfect Rip Deck,Lime,Peru,Second Class,Late delivery,High Risk,4,1,59.99000168,18.71999931,-12.046374,-77.0427934,73.33
Men's Footwear,Nike Men's CJ Elite 2 TD Football Cleat,Coyoacan,Mexico,Second Class,Late delivery,High Risk,4,1,129.9900055,-12.09000015,19.3437444,-99.1561883,54.48
Men's Footwear,Nike Men's CJ Elite 2 TD Football Cleat,Savior,Brazil,Second Class,Late delivery,High Risk,4,1,129.9900055,50.31000137,-14.235004,-51.92528,58.61
Men's Footwear,Nike Men's CJ Elite 2 TD Football Cleat,Managua,Nicaragua,Second Class,Late delivery,High Risk,4,1,129.9900055,1.370000005,12.1149926,-86.2361744,45.0
Men's Footwear,Nike Men's CJ Elite 2 TD Football Cleat,Curitiba,Brazil,Second Class,Late delivery,High Risk,4,1,129.9900055,35.40000153,-25.4268985,-49.2651984,58.61
Cleats,Perfect Fitness Perfect Rip Deck,Victory,Mexico,Second Class,Late delivery,High Risk,4,1,59.99000168,5.760000229,23.7369164,-99.1411154,65.53
Men's Footwear,Nike Men's CJ Elite 2 TD Football Cleat,Reynosa,Mexico,Second Class,Late delivery,High Risk,4,1,129.9900055,18.01000023,26.0508406,-98.2978951,54.48
Men's Footwear,Nike Men's CJ Elite 2 TD Football Cleat,Morelia,Mexico,Second Class,Late delivery,High Risk,4,1,129.9900055,7.800000191,19.7059504,-101.1949825,54.48
Men's Footwear,Nike Men's CJ Elite 2 TD Football Cleat,Recife,Brazil,Second Class,Late delivery,High Risk,4,1,129.9900055,30.15999985,-8.0578381,-34.8828969,58.61
Women's Apparel,Nike Men's Dri-FIT Victory Golf Polo,Log,Mexico,Second Class,Late delivery,High Risk,4,1,50.0,23.76000023,24.26694,-98.8362755,70.05
Women's Apparel,Nike Men's Dri-FIT Victory Golf Polo,Managua,Nicaragua,Second Class,Late delivery,High Risk,4,1,50.0,-8.090000153,12.1149926,-86.2361744,70.57
Women's Apparel,Nike Men's Dri-FIT Victory Golf Polo,Saint Clare,Cuba,Second Class,Late delivery,High Risk,4,1,50.0,11.05000019,22.424398,-79.9416549,71.22
Women's Apparel,Nike Men's Dri-FIT Victory Golf Polo,Reynosa,Mexico,Second Class,Late delivery,High Risk,4,1,50.0,13.48999977,26.0508406,-98.2978951,70.05
Women's Apparel,Nike Men's Dri-FIT Victory Golf Polo,Lion,Mexico,Second Class,Late delivery,High Risk,4,1,50.0,11.89000034,21.1250077,-101.6859605,70.05
Trade-In,Garmin Approach S3 Golf GPS Watch,San Fernando,Trinidad and Tobago,Second Class,Late delivery,High Risk,4,1,249.9900055,113.9199982,10.2859466,-61.45216509999999,
Camping & Hiking,Diamondback Women's Serene Classic Comfort Bi,San Fernando,Trinidad and Tobago,Second Class,Late delivery,High Risk,4,1,299.980011,56.40000153,10.2859466,-61.45216509999999,
Fishing,Field & Stream Sportsman 16 Gun Fire Safe,Tlalpan,Mexico,Second Class,Late delivery,High Risk,4,1,399.980011,35.20000076,19.2790911,-99.2114234,48.26
Fishing,Field & Stream Sportsman 16 Gun Fire Safe,Tlalpan,Mexico,Second Class,Late delivery,High Risk,4,1,399.980011,-269.269989,19.2790911,-99.2114234,48.26
Camping & Hiking,Diamondback Women's Serene Classic Comfort Bi,Santo Domingo,Dominican Republic,Second Class,Late delivery,High Risk,4,1,299.980011,133.8500061,18.4626178,-69.93609239999999,59.63
Camping & Hiking,Diamondback Women's Serene Classic Comfort Bi,Log,Mexico,Second Class,Late delivery,High Risk,4,1,299.980011,71.25,24.26694,-98.8362755,49.14
Camping & Hiking,Diamondback Women's Serene Classic Comfort Bi,Porto Alegre,Brazil,Second Class,Late delivery,High Risk,4,1,299.980011,35.61999893,-30.0368176,-51.2089887,63.14
Fishing,Field & Stream Sportsman 16 Gun Fire Safe,Managua,Nicaragua,Second Class,Late delivery,High Risk,4,1,399.980011,171.0700073,12.1149926,-86.2361744,65.0
Fishing,Field & Stream Sportsman 16 Gun Fire Safe,Maracaibo,Venezuela,Second Class,Late delivery,High Risk,4,1,399.980011,121.6699982,10.6410135,-71.607381,
Fishing,Field & Stream Sportsman 16 Gun Fire Safe,Santo Domingo,Dominican Republic,Second Class,Late delivery,High Risk,4,1,399.980011,-598.3699951,18.4626178,-69.93609239999999,44.74
Camping & Hiking,Diamondback Women's Serene Classic Comfort Bi,Sao Paulo,Brazil,Second Class,Late delivery,High Risk,4,1,299.980011,68.63999939,-23.5557714,-46.6395571,63.14
Fishing,Field & Stream Sportsman 16 Gun Fire Safe,Buenos Aires,Argentina,Second Class,Late delivery,High Risk,4,1,399.980011,165.4299927,-34.6036844,-58.3815591,31.67
Fishing,Field & Stream Sportsman 16 Gun Fire Safe,Log,Mexico,Second Class,Late delivery,High Risk,4,1,399.980011,20.87999916,24.26694,-98.8362755,48.26
Camping & Hiking,Diamondback Women's Serene Classic Comfort Bi,Sao Paulo,Brazil,Second Class,Late delivery,High Risk,4,1,299.980011,-3.390000105,-23.5557714,-46.6395571,63.14
Fishing,Field & Stream Sportsman 16 Gun Fire Safe,Tijuana,Mexico,Second Class,Late delivery,High Risk,4,1,399.980011,98.59999847,32.5331957,-117.0192784,48.26
Camping & Hiking,Diamondback Women's Serene Classic Comfort Bi,Manizales,Colombia,Second Class,Late delivery,High Risk,4,1,299.980011,-407.9700012,5.0629743,-75.5027698,60.0
Camping & Hiking,Diamondback Women's Serene Classic Comfort Bi,Cordova,Mexico,Second Class,Late delivery,High Risk,4,1,299.980011,119.5100021,18.8838909,-96.9237751,49.14
Camping & Hiking,Diamondback Women's Serene Classic Comfort Bi,Guasave,Mexico,Second Class,Late delivery,High Risk,4,1,299.980011,117.0199966,25.5666987,-108.4673051,49.14
Camping & Hiking,Diamondback Women's Serene Classic Comfort Bi,Guasave,Mexico,Second Class,Late delivery,High Risk,4,1,299.980011,46.74000168,25.5666987,-108.4673051,49.14
Men's Footwear,Nike Men's CJ Elite 2 TD Football Cleat,Mexicali,Mexico,Second Class,Late delivery,High Risk,4,1,129.9900055,16.25,32.6245389,-115.4522623,54.48
Men's Footwear,Nike Men's CJ Elite 2 TD Football Cleat,Mexicali,Mexico,Second Class,Late delivery,High Risk,4,1,129.9900055,8.109999657,32.6245389,-115.4522623,54.48
Men's Footwear,Nike Men's CJ Elite 2 TD Football Cleat,Irapuato,Mexico,Second Class,Late delivery,High Risk,4,1,129.9900055,7.25,20.6786652,-101.3544964,54.48
Shop By Sport,Under Armour Girls' Toddler Spine Surge Runni,The Roman,Dominican Republic,Second Class,Late delivery,High Risk,4,1,39.99000168,9.460000038,18.735693,-70.162651,56.67
Camping & Hiking,Diamondback Women's Serene Classic Comfort Bi,Irapuato,Mexico,Second Class,Late delivery,High Risk,4,1,299.980011,142.5800018,20.6786652,-101.3544964,49.14
Fishing,Field & Stream Sportsman 16 Gun Fire Safe,Mexicali,Mexico,Second Class,Late delivery,High Risk,4,1,399.980011,89.59999847,32.6245389,-115.4522623,48.26
Computers,Dell Laptop,Huaibei,China,Second Class,Late delivery,High Risk,4,1,1500.0,466.8800049,33.9547899,116.7983399,
Pet Supplies,Adult dog supplies,Sylhet,Bangladesh,Second Class,Late delivery,High Risk,4,1,84.40000153,28.26000023,24.9047808,91.8600079,
Cardio Equipment,Nike Men's Free 5.0+ Running Shoe,Hamilton,New Zealand,Second Class,Late delivery,High Risk,4,1,99.98999786,29.70000076,-37.7825893,175.2527624,70.0
Men's Footwear,Nike Men's CJ Elite 2 TD Football Cleat,Rasht,Iran,Second Class,Late delivery,High Risk,4,1,129.9900055,37.70000076,37.2712671,49.5920736,68.42
Men's Footwear,Nike Men's CJ Elite 2 TD Football Cleat,Guangzhou,China,Second Class,Late delivery,High Risk,4,1,129.9900055,33.45999908,23.1290799,113.26436,66.45
Cleats,Perfect Fitness Perfect Rip Deck,Lahore,Pakistan,Second Class,Late delivery,High Risk,4,1,59.99000168,3.74000001,31.5203696,74.35874729999999,43.08
Men's Footwear,Nike Men's CJ Elite 2 TD Football Cleat,Shangqiu,China,Second Class,Late delivery,High Risk,4,1,129.9900055,33.11999893,34.4142699,115.65635,66.45
Men's Footwear,Nike Men's CJ Elite 2 TD Football Cleat,Patna,India,Second Class,Late delivery,High Risk,4,1,129.9900055,3.180000067,25.5940947,85.1375645,55.71
Women's Clothing,Summer dresses,Depok,Indonesia,Second Class,Late delivery,High Risk,4,1,215.8200073,76.77999878,-6.4024844,106.7942405,45.0
Men's Footwear,Nike Men's CJ Elite 2 TD Football Cleat,Basra,Iraq,Second Class,Late delivery,High Risk,4,1,129.9900055,14.01000023,30.5259953,47.7737891,60.0
Cleats,Perfect Fitness Perfect Rip Deck,Patna,India,Second Class,Late delivery,High Risk,4,1,59.99000168,13.85000038,25.5940947,85.1375645,67.03
Men's Footwear,Nike Men's CJ Elite 2 TD Football Cleat,Seoul,South Korea,Second Class,Late delivery,High Risk,4,1,129.9900055,56.15999985,37.56521290000001,126.9773517,49.0
Men's Footwear,Nike Men's CJ Elite 2 TD Football Cleat,Kwinana,Australia,Second Class,Late delivery,High Risk,4,1,129.9900055,57.40000153,-32.2320792,115.7787256,69.21
Men's Footwear,Nike Men's CJ Elite 2 TD Football Cleat,Seoul,South Korea,Second Class,Late delivery,High Risk,4,1,129.9900055,40.13000107,37.56521290000001,126.9773517,49.0
Men's Footwear,Nike Men's CJ Elite 2 TD Football Cleat,Seoul,South Korea,Second Class,Late delivery,High Risk,4,1,129.9900055,7.739999771,37.56521290000001,126.9773517,49.0
Men's Footwear,Nike Men's CJ Elite 2 TD Football Cleat,Zhuhai,China,Second Class,Late delivery,High Risk,4,1,129.9900055,-208.8300018,22.2708599,113.57666,66.45
Men's Footwear,Nike Men's CJ Elite 2 TD Football Cleat,Sydney,Australia,Second Class,Late delivery,High Risk,4,1,129.9900055,-12.27999973,-33.8688197,151.2092955,69.21
Men's Footwear,Nike Men's CJ Elite 2 TD Football Cleat,Pontianak,Indonesia,Second Class,Late delivery,High Risk,4,1,129.9900055,33.16999817,-0.0263303,109.3425039,65.93
Cleats,Perfect Fitness Perfect Rip Deck,Basra,Iraq,Second Class,Late delivery,High Risk,4,1,59.99000168,18.45000076,30.5259953,47.7737891,77.31
Women's Clothing,Summer dresses,Lahore,Pakistan,Second Class,Late delivery,High Risk,4,1,215.8200073,63.84000015,31.5203696,74.35874729999999,
Men's Clothing,Men's gala suit,Kwinana,Australia,Second Class,Late delivery,High Risk,4,1,210.8500061,77.48999786,-32.2320792,115.7787256,55.56
Men's Footwear,Nike Men's CJ Elite 2 TD Football Cleat,Rasht,Iran,Second Class,Late delivery,High Risk,4,1,129.9900055,25.63999939,37.2712671,49.5920736,68.42
Men's Footwear,Nike Men's CJ Elite 2 TD Football Cleat,Chennai,India,Second Class,Late delivery,High Risk,4,1,129.9900055,1.950000048,13.0843007,80.2704622,55.71
Women's Apparel,Nike Men's Dri-FIT Victory Golf Polo,Amritsar,India,Second Class,Late delivery,High Risk,4,1,50.0,0.639999986,31.6339793,74.8722642,62.41
Women's Apparel,Nike Men's Dri-FIT Victory Golf Polo,Lahore,Pakistan,Second Class,Late delivery,High Risk,4,1,50.0,19.79999924,31.5203696,74.35874729999999,62.22
Women's Apparel,Nike Men's Dri-FIT Victory Golf Polo,Shangqiu,China,Second Class,Late delivery,High Risk,4,1,50.0,13.92000008,34.4142699,115.65635,76.49
Camping & Hiking,Diamondback Women's Serene Classic Comfort Bi,Hamilton,New Zealand,Second Class,Late delivery,High Risk,4,1,299.980011,-53.25,-37.7825893,175.2527624,63.08
Fishing,Field & Stream Sportsman 16 Gun Fire Safe,Kwinana,Australia,Second Class,Late delivery,High Risk,4,1,399.980011,135.7899933,-32.2320792,115.7787256,55.63
Camping & Hiking,Diamondback Women's Serene Classic Comfort Bi,Malanje,Angola,Second Class,Late delivery,High Risk,4,1,299.980011,82.87000275,-9.5418224,16.3346061,
Computers,Dell Laptop,Northampton,United Kingdom,Second Class,Late delivery,High Risk,4,1,1500.0,393.1199951,52.23706499999999,-0.8944420999999999,67.06
Cardio Equipment,Nike Men's Free 5.0+ Running Shoe,Rennes,France,Second Class,Late delivery,High Risk,4,1,99.98999786,36.75,48.117266,-1.6777926,70.84
Men's Footwear,Nike Men's CJ Elite 2 TD Football Cleat,Irkutsk,Russia,Second Class,Late delivery,High Risk,4,1,129.9900055,15.43999958,52.2854834,104.2890222,54.71
Men's Footwear,Nike Men's CJ Elite 2 TD Football Cleat,Messina,Italy,Second Class,Late delivery,High Risk,4,1,129.9900055,-76.23000336,38.1937342,15.5542088,63.3
Hockey,Nike Women's Legend V-Neck T-Shirt,Bangor,USA,Second Class,Late delivery,High Risk,4,1,50.0,-6.980000019,44.8016128,-68.7712257,70.65
Hockey,Nike Women's Legend V-Neck T-Shirt,Bangor,USA,Second Class,Late delivery,High Risk,4,1,125.0,40.22000122,44.8016128,-68.7712257,70.65
Hockey,Nike Women's Legend V-Neck T-Shirt,Tulsa,USA,Second Class,Late delivery,High Risk,4,1,25.0,8.489999771,36.1539816,-95.992775,70.65
Hockey,Nike Women's Legend V-Neck T-Shirt,Moradabad,India,Second Class,Late delivery,High Risk,4,1,50.0,2.329999924,28.8386481,78.7733286,48.7
Hockey,Nike Women's Legend V-Neck T-Shirt,Manila,Philippines,Second Class,Late delivery,High Risk,4,1,25.0,10.17000008,14.5995124,120.9842195,55.0
Hockey,Nike Women's Legend V-Neck T-Shirt,Toowoomba,Australia,Second Class,Late delivery,High Risk,4,1,25.0,-16.48999977,-27.5598212,151.9506696,60.31
Hockey,Nike Women's Legend V-Neck T-Shirt,Sassari,Italy,Second Class,Late delivery,High Risk,4,1,50.0,23.62999916,40.7258034,8.5557334,82.14
Tennis & Racquet,Nike Men's Comfort 2 Slide,Managua,Nicaragua,Second Class,Late delivery,High Risk,4,1,44.99000168,12.8199997,12.1149926,-86.2361744,
Tennis & Racquet,Nike Men's Comfort 2 Slide,Nicoya,Costa Rica,Second Class,Late delivery,High Risk,4,1,224.9499969,106.9000015,10.1445678,-85.4530295,
Tennis & Racquet,Nike Men's Comfort 2 Slide,Grenade,Nicaragua,Second Class,Late delivery,High Risk,4,1,44.99000168,5.230000019,12.865416,-85.207229,
Fishing,Field & Stream Sportsman 16 Gun Fire Safe,Lahore,Pakistan,Second Class,Late delivery,High Risk,4,1,399.980011,182.3899994,31.5203696,74.35874729999999,
Camping & Hiking,Diamondback Women's Serene Classic Comfort Bi,Shangqiu,China,Second Class,Late delivery,High Risk,4,1,299.980011,15.84000015,34.4142699,115.65635,62.55
Camping & Hiking,Diamondback Women's Serene Classic Comfort Bi,Kwinana,Australia,Second Class,Late delivery,High Risk,4,1,299.980011,65.51999664,-32.2320792,115.7787256,63.19
Camping & Hiking,Diamondback Women's Serene Classic Comfort Bi,Kwinana,Australia,Second Class,Late delivery,High Risk,4,1,299.980011,87.13999939,-32.2320792,115.7787256,63.19
Fishing,Field & Stream Sportsman 16 Gun Fire Safe,Zhuhai,China,Second Class,Late delivery,High Risk,4,1,399.980011,-251.5599976,22.2708599,113.57666,52.5
Fishing,Field & Stream Sportsman 16 Gun Fire Safe,Zhuhai,China,Second Class,Late delivery,High Risk,4,1,399.980011,153.5899963,22.2708599,113.57666,52.5
Fishing,Field & Stream Sportsman 16 Gun Fire Safe,Seoul,South Korea,Second Class,Late delivery,High Risk,4,1,399.980011,-63.90000153,37.56521290000001,126.9773517,
DVDs,DVDs ,Guangzhou,China,Second Class,Late delivery,High Risk,4,1,164.3800049,13.67000008,23.1290799,113.26436,63.33
CDs ,CDs of rock,Perth,Australia,Second Class,Late delivery,High Risk,4,1,11.28999996,-1.690000057,-31.9513993,115.8616783,45.71
Men's Footwear,Nike Men's CJ Elite 2 TD Football Cleat,Doha,Qatar,Second Class,Late delivery,High Risk,4,1,129.9900055,51.97999954,25.2854473,51.53103979999999,
Men's Footwear,Nike Men's CJ Elite 2 TD Football Cleat,Dhaka,Bangladesh,Second Class,Late delivery,High Risk,4,1,129.9900055,29.5699997,23.804093,90.4152376,72.86
Men's Footwear,Nike Men's CJ Elite 2 TD Football Cleat,Pavlodar,Kazakhstan,Second Class,Late delivery,High Risk,4,1,129.9900055,52.22999954,52.2873032,76.9674023,40.0
Men's Footwear,Nike Men's CJ Elite 2 TD Football Cleat,I bless,Australia,Second Class,Late delivery,High Risk,4,1,129.9900055,-10.71000004,-25.274398,133.775136,69.21
Fishing,Field & Stream Sportsman 16 Gun Fire Safe,Xianning,China,Second Class,Late delivery,High Risk,4,1,399.980011,126.4700012,29.8412599,114.32245,52.5
Camping & Hiking,Diamondback Women's Serene Classic Comfort Bi,Xianning,China,Second Class,Late delivery,High Risk,4,1,299.980011,27.71999931,29.8412599,114.32245,62.55
Cardio Equipment,Nike Men's Free 5.0+ Running Shoe,Anaheim,USA,Second Class,Late delivery,High Risk,4,1,99.98999786,5.0,33.8365932,-117.9143012,69.37
Cardio Equipment,Nike Men's Free 5.0+ Running Shoe,Akron,USA,Second Class,Late delivery,High Risk,4,1,99.98999786,47.04000092,41.081199,-81.51883769999999,69.37
Cleats,Perfect Fitness Perfect Rip Deck,Louisville,USA,Second Class,Late delivery,High Risk,4,1,59.99000168,15.43999958,39.977763,-105.1319296,68.0
Cleats,Perfect Fitness Perfect Rip Deck,Louisville,USA,Second Class,Late delivery,High Risk,4,1,59.99000168,28.21999931,39.977763,-105.1319296,68.0
Cleats,Perfect Fitness Perfect Rip Deck,San Francisco,USA,Second Class,Late delivery,High Risk,4,1,59.99000168,-43.09000015,37.7749295,-122.4194155,68.0
Men's Footwear,Nike Men's CJ Elite 2 TD Football Cleat,Akron,USA,Second Class,Late delivery,High Risk,4,1,129.9900055,44.95000076,41.081199,-81.51883769999999,60.68
Men's Footwear,Nike Men's CJ Elite 2 TD Football Cleat,Little Rock,USA,Second Class,Late delivery,High Risk,4,1,129.9900055,10.0699997,34.7444618,-92.2880157,60.68
Men's Footwear,Nike Men's CJ Elite 2 TD Football Cleat,Long Beach,USA,Second Class,Late delivery,High Risk,4,1,129.9900055,38.65999985,33.7700504,-118.1937395,60.68
Men's Footwear,Nike Men's CJ Elite 2 TD Football Cleat,Oakland,USA,Second Class,Late delivery,High Risk,4,1,129.9900055,53.75999832,37.8043514,-122.2711639,60.68
Men's Footwear,Nike Men's CJ Elite 2 TD Football Cleat,Philadelphia,USA,Second Class,Late delivery,High Risk,4,1,129.9900055,1.309999943,39.9525839,-75.1652215,60.68
Men's Footwear,Nike Men's CJ Elite 2 TD Football Cleat,Seattle,USA,Second Class,Late delivery,High Risk,4,1,129.9900055,-5.460000038,47.6061389,-122.3328481,60.68
Men's Footwear,Nike Men's CJ Elite 2 TD Football Cleat,Philadelphia,USA,Second Class,Late delivery,High Risk,4,1,129.9900055,36.47000122,39.9525839,-75.1652215,60.68
Men's Footwear,Nike Men's CJ Elite 2 TD Football Cleat,Leominster,USA,Second Class,Late delivery,High Risk,4,1,129.9900055,4.159999847,42.5250906,-71.759794,60.68
Shop By Sport,Under Armour Girls' Toddler Spine Surge Runni,Long Beach,USA,Second Class,Late delivery,High Risk,4,1,39.99000168,-6.929999828,33.7700504,-118.1937395,67.9
Women's Apparel,Nike Men's Dri-FIT Victory Golf Polo,Lafayette,USA,Second Class,Late delivery,High Risk,4,1,50.0,2.599999905,40.4167022,-86.87528689999999,66.26
Shop By Sport,Under Armour Girls' Toddler Spine Surge Runni,San Francisco,USA,Second Class,Late delivery,High Risk,4,1,39.99000168,7.800000191,37.7749295,-122.4194155,67.9
Camping & Hiking,Diamondback Women's Serene Classic Comfort Bi,Houston,USA,Second Class,Late delivery,High Risk,4,1,299.980011,148.4900055,29.7600771,-95.3701108,62.55
Camping & Hiking,Diamondback Women's Serene Classic Comfort Bi,Philadelphia,USA,Second Class,Late delivery,High Risk,4,1,299.980011,102.8899994,39.9525839,-75.1652215,62.55
Camping & Hiking,Diamondback Women's Serene Classic Comfort Bi,Philadelphia,USA,Second Class,Late delivery,High Risk,4,1,299.980011,99.37000275,39.9525839,-75.1652215,62.55
Camping & Hiking,Diamondback Women's Serene Classic Comfort Bi,Philadelphia,USA,Second Class,Late delivery,High Risk,4,1,299.980011,55.0,39.9525839,-75.1652215,62.55
Camping & Hiking,Diamondback Women's Serene Classic Comfort Bi,Los Angeles,USA,Second Class,Late delivery,High Risk,4,1,299.980011,17.86000061,34.0549076,-118.242643,62.55
Camping & Hiking,Diamondback Women's Serene Classic Comfort Bi,Columbus,USA,Second Class,Late delivery,High Risk,4,1,299.980011,89.23999786,32.4609764,-84.9877094,62.55
Camping & Hiking,Diamondback Women's Serene Classic Comfort Bi,San Francisco,USA,Second Class,Late delivery,High Risk,4,1,299.980011,127.4899979,37.7749295,-122.4194155,62.55
Camping & Hiking,Diamondback Women's Serene Classic Comfort Bi,Columbus,USA,Second Class,Late delivery,High Risk,4,1,299.980011,22.17000008,32.4609764,-84.9877094,62.55
Camping & Hiking,Diamondback Women's Serene Classic Comfort Bi,Anaheim,USA,Second Class,Late delivery,High Risk,4,1,299.980011,65.51999664,33.8365932,-117.9143012,62.55
Camping & Hiking,Diamondback Women's Serene Classic Comfort Bi,Bolingbrook,USA,Second Class,Late delivery,High Risk,4,1,299.980011,-43.04999924,41.69864159999999,-88.0683955,62.55
Camping & Hiking,Diamondback Women's Serene Classic Comfort Bi,San Bernardino,USA,Second Class,Late delivery,High Risk,4,1,299.980011,60.75,34.1083449,-117.2897652,62.55
Men's Footwear,Nike Men's CJ Elite 2 TD Football Cleat,San Diego,USA,Second Class,Late delivery,High Risk,4,1,129.9900055,-24.75,32.715738,-117.1610838,60.68
Women's Apparel,Nike Men's Dri-FIT Victory Golf Polo,San Diego,USA,Second Class,Late delivery,High Risk,4,1,50.0,15.06000042,32.715738,-117.1610838,66.26
Shop By Sport,Under Armour Girls' Toddler Spine Surge Runni,Kuito,Angola,Second Class,Late delivery,High Risk,4,1,79.98000336,-33.08000183,-12.3940412,16.9417632,
Cleats,Perfect Fitness Perfect Rip Deck,Bochum,Germany,Second Class,Late delivery,High Risk,4,1,119.9800034,24.44000053,51.4818445,7.216236299999999,65.53
Cleats,Perfect Fitness Perfect Rip Deck,London,United Kingdom,Second Class,Late delivery,High Risk,4,1,119.9800034,-9.5,51.5072178,-0.1275862,62.58
Cleats,Perfect Fitness Perfect Rip Deck,Ajaccio,France,Second Class,Late delivery,High Risk,4,1,119.9800034,48.38000107,41.919229,8.738635,66.07
Cleats,Perfect Fitness Perfect Rip Deck,Longjumeau,France,Second Class,Late delivery,High Risk,4,1,119.9800034,42.8199997,48.6930642,2.2947615,66.07
Cleats,Perfect Fitness Perfect Rip Deck,Sheffield,United Kingdom,Second Class,Late delivery,High Risk,4,1,119.9800034,0.0,53.38112899999999,-1.470085,62.58
Women's Apparel,Nike Men's Dri-FIT Victory Golf Polo,Kerpen,Germany,Second Class,Late delivery,High Risk,4,1,100.0,47.0,50.8747592,6.6883728,69.27
Women's Apparel,Nike Men's Dri-FIT Victory Golf Polo,Mulhouse,France,Second Class,Late delivery,High Risk,4,1,100.0,9.5,47.750839,7.335888,69.85
Women's Apparel,Nike Men's Dri-FIT Victory Golf Polo,The Bridge,France,Second Class,Late delivery,High Risk,4,1,100.0,22.75,43.9351691,6.0679194,69.85
Women's Apparel,Nike Men's Dri-FIT Victory Golf Polo,Longjumeau,France,Second Class,Late delivery,High Risk,4,1,100.0,29.75,48.6930642,2.2947615,69.85
Shop By Sport,Under Armour Girls' Toddler Spine Surge Runni,Capannori,Italy,Second Class,Late delivery,High Risk,4,1,79.98000336,8.199999809,43.8460411,10.5737909,65.91
Women's Apparel,Nike Men's Dri-FIT Victory Golf Polo,Stockholm,Sweden,Second Class,Late delivery,High Risk,4,1,100.0,8.25,59.3327036,18.0656255,68.0
Soccer,Elevation Training Mask 2.0,Recife,Brazil,Second Class,Late delivery,High Risk,4,1,159.9799957,37.20000076,-8.0578381,-34.8828969,
Cardio Equipment,Nike Men's Free 5.0+ Running Shoe,Buenos Aires,Argentina,Second Class,Late delivery,High Risk,4,1,199.9799957,53.93000031,-34.6036844,-58.3815591,74.07
Cleats,Perfect Fitness Perfect Rip Deck,Villahermosa,Mexico,Second Class,Late delivery,High Risk,4,1,119.9800034,53.5,17.989456,-92.9475061,65.53
Cleats,Perfect Fitness Perfect Rip Deck,Curitiba,Brazil,Second Class,Late delivery,High Risk,4,1,119.9800034,51.15000153,-25.4268985,-49.2651984,71.94
Cleats,Perfect Fitness Perfect Rip Deck,Los Mochis,Mexico,Second Class,Late delivery,High Risk,4,1,119.9800034,-16.79999924,25.7904657,-108.985882,65.53
Cleats,Perfect Fitness Perfect Rip Deck,Morelia,Mexico,Second Class,Late delivery,High Risk,4,1,119.9800034,24.29999924,19.7059504,-101.1949825,65.53
Shop By Sport,Under Armour Girls' Toddler Spine Surge Runni,Cordova,Mexico,Second Class,Late delivery,High Risk,4,1,79.98000336,14.0,18.8838909,-96.9237751,68.85
Women's Apparel,Nike Men's Dri-FIT Victory Golf Polo,Sonsonate,El Salvador,Second Class,Late delivery,High Risk,4,1,100.0,31.85000038,13.7172752,-89.723041,66.5
Women's Apparel,Nike Men's Dri-FIT Victory Golf Polo,Guantanamo,Cuba,Second Class,Late delivery,High Risk,4,1,100.0,-109.1999969,20.1444308,-75.2037872,71.22
Women's Apparel,Nike Men's Dri-FIT Victory Golf Polo,Tijuana,Mexico,Second Class,Late delivery,High Risk,4,1,100.0,4.5,32.5331957,-117.0192784,70.05
Women's Apparel,Nike Men's Dri-FIT Victory Golf Polo,Buenos Aires,Argentina,Second Class,Late delivery,High Risk,4,1,100.0,24.36000061,-34.6036844,-58.3815591,59.75
Women's Apparel,Nike Men's Dri-FIT Victory Golf Polo,Sao Paulo,Brazil,Second Class,Late delivery,High Risk,4,1,100.0,22.10000038,-23.5557714,-46.6395571,72.49
Shop By Sport,Under Armour Girls' Toddler Spine Surge Runni,Santo Domingo,Dominican Republic,Second Class,Late delivery,High Risk,4,1,79.98000336,20.79000092,18.4626178,-69.93609239999999,56.67
Electronics,Titleist Pro V1 High Numbers Personalized Gol,Arequipa,Peru,Second Class,Late delivery,High Risk,4,1,103.9800034,-116.9800034,-16.4057001,-71.5400994,
Cleats,Perfect Fitness Perfect Rip Deck,Saltillo,Mexico,Second Class,Late delivery,High Risk,4,1,119.9800034,45.88999939,25.4383234,-100.973678,65.53
Shop By Sport,Under Armour Girls' Toddler Spine Surge Runni,Irapuato,Mexico,Second Class,Late delivery,High Risk,4,1,79.98000336,37.59000015,20.6786652,-101.3544964,68.85
Women's Apparel,Nike Men's Dri-FIT Victory Golf Polo,The Vega,Dominican Republic,Second Class,Late delivery,High Risk,4,1,100.0,31.5,18.735693,-70.162651,69.71
Cardio Equipment,Nike Men's Free 5.0+ Running Shoe,Seremban,Malaysia,Second Class,Late delivery,High Risk,4,1,199.9799957,-138.5200043,2.725889,101.9378239,42.22
Cardio Equipment,Nike Men's Free 5.0+ Running Shoe,Ho Chi Minh City,Vietnam,Second Class,Late delivery,High Risk,4,1,199.9799957,20.75,10.8230989,106.6296638,72.22
Cardio Equipment,Nike Men's Free 5.0+ Running Shoe,Basra,Iraq,Second Class,Late delivery,High Risk,4,1,199.9799957,58.09000015,30.5259953,47.7737891,68.0
Cardio Equipment,Nike Men's Free 5.0+ Running Shoe,Pontianak,Indonesia,Second Class,Late delivery,High Risk,4,1,199.9799957,54.43999863,-0.0263303,109.3425039,62.27
Shop By Sport,Columbia Men's PFG Anchor Tough T-Shirt,Hamilton,New Zealand,Second Class,Late delivery,High Risk,4,1,60.0,17.28000069,-37.7825893,175.2527624,52.78
Women's Apparel,Nike Men's Dri-FIT Victory Golf Polo,Denpasar,Indonesia,Second Class,Late delivery,High Risk,4,1,100.0,45.0,-8.670458199999999,115.2126293,71.09
Shop By Sport,Under Armour Girls' Toddler Spine Surge Runni,Wadi as Sir,Jordan,Second Class,Late delivery,High Risk,4,1,79.98000336,25.19000053,31.9566347,35.8472427,
Women's Apparel,Nike Men's Dri-FIT Victory Golf Polo,Sari,Iran,Second Class,Late delivery,High Risk,4,1,100.0,17.71999931,36.5658729,53.0586328,66.4
Women's Apparel,Nike Men's Dri-FIT Victory Golf Polo,Allahabad,India,Second Class,Late delivery,High Risk,4,1,100.0,8.300000191,25.468338,81.85460189999999,62.41
Shop By Sport,Under Armour Girls' Toddler Spine Surge Runni,Dhaka,Bangladesh,Second Class,Late delivery,High Risk,4,1,79.98000336,18.55999947,23.804093,90.4152376,48.33
Shop By Sport,Under Armour Girls' Toddler Spine Surge Runni,Dhaka,Bangladesh,Second Class,Late delivery,High Risk,4,1,79.98000336,29.38999939,23.804093,90.4152376,48.33
Cardio Equipment,Nike Men's Free 5.0+ Running Shoe,Bolingbrook,USA,Second Class,Late delivery,High Risk,4,1,199.9799957,-39.49000168,41.69864159999999,-88.0683955,69.37
Cardio Equipment,Nike Men's Free 5.0+ Running Shoe,Leominster,USA,Second Class,Late delivery,High Risk,4,1,199.9799957,65.33000183,42.5250906,-71.759794,69.37
Cardio Equipment,Nike Men's Free 5.0+ Running Shoe,Bellevue,USA,Second Class,Late delivery,High Risk,4,1,199.9799957,-112.0400009,47.6101497,-122.2015159,69.37
Cleats,Perfect Fitness Perfect Rip Deck,Leominster,USA,Second Class,Late delivery,High Risk,4,1,119.9800034,53.29000092,42.5250906,-71.759794,68.0
Cleats,Perfect Fitness Perfect Rip Deck,San Francisco,USA,Second Class,Late delivery,High Risk,4,1,119.9800034,2.700000048,37.7749295,-122.4194155,68.0
Cleats,Perfect Fitness Perfect Rip Deck,Providence,USA,Second Class,Late delivery,High Risk,4,1,119.9800034,29.22999954,41.82490749999999,-71.4146264,68.0
Women's Apparel,Nike Men's Dri-FIT Victory Golf Polo,Detroit,USA,Second Class,Late delivery,High Risk,4,1,100.0,44.65000153,42.331427,-83.0457538,66.26
Shop By Sport,Under Armour Girls' Toddler Spine Surge Runni,Bolingbrook,USA,Second Class,Late delivery,High Risk,4,1,79.98000336,23.79000092,41.69864159999999,-88.0683955,67.9
Shop By Sport,Under Armour Girls' Toddler Spine Surge Runni,Columbus,USA,Second Class,Late delivery,High Risk,4,1,79.98000336,31.47999954,32.4609764,-84.9877094,67.9
Cleats,Perfect Fitness Perfect Rip Deck,Medina,USA,Second Class,Late delivery,High Risk,4,1,119.9800034,4.420000076,41.143245,-81.8552196,68.0
Cleats,Perfect Fitness Perfect Rip Deck,Lakes,Nigeria,Second Class,Late delivery,High Risk,4,1,179.9700012,-9.720000267,9.081999,8.675277,67.8
Cleats,Perfect Fitness Perfect Rip Deck,Kuito,Angola,Second Class,Late delivery,High Risk,4,1,179.9700012,54.41999817,-12.3940412,16.9417632,55.0
Women's Apparel,Nike Men's Dri-FIT Victory Golf Polo,Praetorship,SudAfrica,Second Class,Late delivery,High Risk,4,1,150.0,53.36000061,-26.2707593,28.1122679,65.26
Tennis & Racquet,Nike Men's Comfort 2 Slide,Vantaa,Finland,Second Class,Late delivery,High Risk,4,1,134.9700012,42.52000046,60.29335239999999,25.0377686,
Cleats,Perfect Fitness Perfect Rip Deck,Corbeil-Essonnes,France,Second Class,Late delivery,High Risk,4,1,179.9700012,41.29999924,48.6102599,2.474805,66.07
Women's Apparel,Nike Men's Dri-FIT Victory Golf Polo,Hanover,Germany,Second Class,Late delivery,High Risk,4,1,150.0,-28.79999924,52.3758916,9.732010400000002,69.27
Women's Apparel,Nike Men's Dri-FIT Victory Golf Polo,Madrid,Spain,Second Class,Late delivery,High Risk,4,1,150.0,11.34000015,40.41672790000001,-3.7032905,73.33
Shop By Sport,Under Armour Girls' Toddler Spine Surge Runni,Burgos,Spain,Second Class,Late delivery,High Risk,4,1,119.9700012,31.65999985,42.3504659,-3.689354499999999,66.22
Shop By Sport,Under Armour Girls' Toddler Spine Surge Runni,Palaiseau,France,Second Class,Late delivery,High Risk,4,1,119.9700012,-13.5,48.7146541,2.2483819,71.24
Women's Apparel,Nike Men's Dri-FIT Victory Golf Polo,London,United Kingdom,Second Class,Late delivery,High Risk,4,1,150.0,44.63000107,51.5072178,-0.1275862,67.74
Women's Apparel,Nike Men's Dri-FIT Victory Golf Polo,London,United Kingdom,Second Class,Late delivery,High Risk,4,1,150.0,14.23999977,51.5072178,-0.1275862,67.74
Women's Apparel,Nike Men's Dri-FIT Victory Golf Polo,Ingolstadt,Germany,Second Class,Late delivery,High Risk,4,1,150.0,-26.69000053,48.7667395,11.4226498,69.27
Electronics,Titleist Pro V1x Golf Balls,Ingolstadt,Germany,Second Class,Late delivery,High Risk,4,1,143.9700012,-28.10000038,48.7667395,11.4226498,56.5
Cardio Equipment,Nike Men's Free 5.0+ Running Shoe,Arequipa,Peru,Second Class,Late delivery,High Risk,4,1,299.9700012,87.73999786,-16.4057001,-71.5400994,57.27
Cleats,Perfect Fitness Perfect Rip Deck,Recife,Brazil,Second Class,Late delivery,High Risk,4,1,179.9700012,59.84000015,-8.0578381,-34.8828969,71.94
Cleats,Perfect Fitness Perfect Rip Deck,Guaymas,Mexico,Second Class,Late delivery,High Risk,4,1,179.9700012,78.66000366,27.9110633,-110.9090678,65.53
Cleats,Perfect Fitness Perfect Rip Deck,Coyoacan,Mexico,Second Class,Late delivery,High Risk,4,1,179.9700012,-137.0,19.3437444,-99.1561883,65.53
Cleats,Perfect Fitness Perfect Rip Deck,The Tunas,Cuba,Second Class,Late delivery,High Risk,4,1,179.9700012,37.79000092,21.521757,-77.781167,71.91
Cleats,Perfect Fitness Perfect Rip Deck,Los Mochis,Mexico,Second Class,Late delivery,High Risk,4,1,179.9700012,17.07999992,25.7904657,-108.985882,65.53
Cleats,Perfect Fitness Perfect Rip Deck,Maracaibo,Venezuela,Second Class,Late delivery,High Risk,4,1,179.9700012,52.25999832,10.6410135,-71.607381,58.8
Women's Apparel,Nike Men's Dri-FIT Victory Golf Polo,Tlalpan,Mexico,Second Class,Late delivery,High Risk,4,1,150.0,16.44000053,19.2790911,-99.2114234,70.05
Women's Apparel,Nike Men's Dri-FIT Victory Golf Polo,Saint Clare,Cuba,Second Class,Late delivery,High Risk,4,1,150.0,37.04999924,22.424398,-79.9416549,71.22
Women's Apparel,Nike Men's Dri-FIT Victory Golf Polo,Santo Domingo,Dominican Republic,Second Class,Late delivery,High Risk,4,1,150.0,10.63000011,18.4626178,-69.93609239999999,69.71
Women's Apparel,Nike Men's Dri-FIT Victory Golf Polo,San Fernando,Trinidad and Tobago,Second Class,Late delivery,High Risk,4,1,150.0,43.65999985,10.2859466,-61.45216509999999,
Women's Apparel,Nike Men's Dri-FIT Victory Golf Polo,Cordova,Mexico,Second Class,Late delivery,High Risk,4,1,150.0,0.0,18.8838909,-96.9237751,70.05
Women's Apparel,Nike Men's Dri-FIT Victory Golf Polo,Managua,Nicaragua,Second Class,Late delivery,High Risk,4,1,150.0,26.20000076,12.1149926,-86.2361744,70.57
Women's Apparel,Nike Men's Dri-FIT Victory Golf Polo,Sonsonate,El Salvador,Second Class,Late delivery,High Risk,4,1,150.0,34.79999924,13.7172752,-89.723041,66.5
Shop By Sport,Under Armour Girls' Toddler Spine Surge Runni,Talcahuano,Chile,Second Class,Late delivery,High Risk,4,1,119.9700012,28.79000092,-36.7247834,-73.1169808,60.0
Shop By Sport,Under Armour Girls' Toddler Spine Surge Runni,Puebla,Mexico,Second Class,Late delivery,High Risk,4,1,119.9700012,26.09000015,19.0414398,-98.2062727,68.85
Hunting & Shooting,The North Face Women's Recon Backpack,Lion,Mexico,Second Class,Late delivery,High Risk,4,1,297.0,121.7699966,21.1250077,-101.6859605,
Cardio Equipment,Nike Men's Free 5.0+ Running Shoe,The Roman,Dominican Republic,Second Class,Late delivery,High Risk,4,1,299.9700012,10.26000023,18.735693,-70.162651,60.53
Electronics,Titleist Pro V1x Golf Balls,Buenos Aires,Argentina,Second Class,Late delivery,High Risk,4,1,143.9700012,35.56000137,-34.6036844,-58.3815591,
Cardio Equipment,Nike Men's Free 5.0+ Running Shoe,Lahore,Pakistan,Second Class,Late delivery,High Risk,4,1,299.9700012,-11.09000015,31.5203696,74.35874729999999,64.44
Cleats,Perfect Fitness Perfect Rip Deck,Medan,Indonesia,Second Class,Late delivery,High Risk,4,1,179.9700012,-145.4199982,3.5951956,98.6722227,70.95
Cleats,Perfect Fitness Perfect Rip Deck,Hamilton,New Zealand,Second Class,Late delivery,High Risk,4,1,179.9700012,-24.5699997,-37.7825893,175.2527624,52.97
Women's Apparel,Nike Men's Dri-FIT Victory Golf Polo,Mangalore,India,Second Class,Late delivery,High Risk,4,1,150.0,-100.0899963,12.9141417,74.8559568,62.41
Electronics,Bridgestone e6 Straight Distance NFL Tennesse,Basra,Iraq,Second Class,Late delivery,High Risk,4,1,95.97000122,30.64999962,30.5259953,47.7737891,
Electronics,Titleist Pro V1 High Numbers Personalized Gol,Kwinana,Australia,Second Class,Late delivery,High Risk,4,1,155.9700012,11.69999981,-32.2320792,115.7787256,59.09
Shop By Sport,Under Armour Girls' Toddler Spine Surge Runni,Toowoomba,Australia,Second Class,Late delivery,High Risk,4,1,119.9700012,50.68000031,-27.5598212,151.9506696,75.69
Women's Apparel,Nike Men's Dri-FIT Victory Golf Polo,Xianning,China,Second Class,Late delivery,High Risk,4,1,150.0,-15.0,29.8412599,114.32245,76.49
Cardio Equipment,Nike Men's Free 5.0+ Running Shoe,Houston,USA,Second Class,Late delivery,High Risk,4,1,299.9700012,128.2400055,29.7600771,-95.3701108,69.37
Cleats,Perfect Fitness Perfect Rip Deck,Little Rock,USA,Second Class,Late delivery,High Risk,4,1,179.9700012,82.93000031,34.7444618,-92.2880157,68.0
Cleats,Perfect Fitness Perfect Rip Deck,Richmond,USA,Second Class,Late delivery,High Risk,4,1,179.9700012,78.66000366,37.5407246,-77.4360481,68.0
Cleats,Perfect Fitness Perfect Rip Deck,New York City,USA,Second Class,Late delivery,High Risk,4,1,179.9700012,38.84000015,40.7127753,-74.0059728,68.0
Women's Apparel,Nike Men's Dri-FIT Victory Golf Polo,Little Rock,USA,Second Class,Late delivery,High Risk,4,1,150.0,35.50999832,34.7444618,-92.2880157,66.26
Women's Apparel,Nike Men's Dri-FIT Victory Golf Polo,Spokane,USA,Second Class,Late delivery,High Risk,4,1,150.0,60.72000122,47.6579711,-117.4235319,66.26
Trade-In,Glove It Imperial Golf Towel,Providence,USA,Second Class,Late delivery,High Risk,4,1,47.97000122,5.570000172,41.82490749999999,-71.4146264,60.77
Trade-In,Glove It Urban Brick Golf Towel,Bellevue,USA,Second Class,Late delivery,High Risk,4,1,47.97000122,13.93000031,47.6101497,-122.2015159,60.77
Cleats,Perfect Fitness Perfect Rip Deck,Raleigh,USA,Second Class,Late delivery,High Risk,4,1,179.9700012,51.88999939,35.7795897,-78.6381787,68.0
Women's Apparel,Nike Men's Dri-FIT Victory Golf Polo,Lakes,Nigeria,Second Class,Late delivery,High Risk,4,1,200.0,53.90000153,9.081999,8.675277,64.9
Cardio Equipment,Nike Men's Free 5.0+ Running Shoe,Ingolstadt,Germany,Second Class,Late delivery,High Risk,4,1,399.9599915,114.0400009,48.7667395,11.4226498,69.49
Cardio Equipment,Nike Men's Free 5.0+ Running Shoe,Nacka,Sweden,Second Class,Late delivery,High Risk,4,1,399.9599915,81.47000122,59.3092328,18.2705343,94.29
Cardio Equipment,Nike Men's Free 5.0+ Running Shoe,Edinburgh,United Kingdom,Second Class,Late delivery,High Risk,4,1,399.9599915,48.0,55.953252,-3.188267,60.56
Cleats,Perfect Fitness Perfect Rip Deck,Corbeil-Essonnes,France,Second Class,Late delivery,High Risk,4,1,239.9600067,-407.9299927,48.6102599,2.474805,66.07
Cleats,Perfect Fitness Perfect Rip Deck,Mantes-la-Jolie,France,Second Class,Late delivery,High Risk,4,1,239.9600067,0.0,48.9896249,1.7151582,66.07
Cleats,Perfect Fitness Perfect Rip Deck,Helsinki,Finland,Second Class,Late delivery,High Risk,4,1,239.9600067,31.48999977,60.16985569999999,24.938379,
Cleats,Perfect Fitness Perfect Rip Deck,Mantes-la-Jolie,France,Second Class,Late delivery,High Risk,4,1,239.9600067,10.80000019,48.9896249,1.7151582,66.07
Women's Apparel,Nike Men's Dri-FIT Victory Golf Polo,London,United Kingdom,Second Class,Late delivery,High Risk,4,1,200.0,59.40000153,51.5072178,-0.1275862,67.74
Women's Apparel,Nike Men's Dri-FIT Victory Golf Polo,Nacka,Sweden,Second Class,Late delivery,High Risk,4,1,200.0,21.46999931,59.3092328,18.2705343,68.0
Shop By Sport,Under Armour Girls' Toddler Spine Surge Runni,Rome,Italy,Second Class,Late delivery,High Risk,4,1,159.9600067,-105.8099976,41.8967068,12.4822025,65.91
Shop By Sport,Under Armour Girls' Toddler Spine Surge Runni,Mantes-la-Jolie,France,Second Class,Late delivery,High Risk,4,1,159.9600067,0.0,48.9896249,1.7151582,71.24
Kids' Golf Clubs,Fitbit The One Wireless Activity & Sleep Trac,Six-Fours-les-Plages,France,Second Class,Late delivery,High Risk,4,1,399.7999878,131.9299927,43.093062,5.839225,47.5
Shop By Sport,Under Armour Girls' Toddler Spine Surge Runni,Reims,France,Second Class,Late delivery,High Risk,4,1,159.9600067,56.77000046,49.258329,4.031696,71.24
Fitness Accessories,Under Armour Hustle Storm Medium Duffle Bag,Guantanamo,Cuba,Second Class,Late delivery,High Risk,4,1,139.9600067,42.58000183,20.1444308,-75.2037872,
Cardio Equipment,Nike Men's Free 5.0+ Running Shoe,Manizales,Colombia,Second Class,Late delivery,High Risk,4,1,399.9599915,-225.7400055,5.0629743,-75.5027698,64.17
Camping & Hiking,Diamondback Women's Serene Classic Comfort Bi,Irkutsk,Russia,Second Class,Late delivery,High Risk,4,1,299.980011,-201.5899963,52.2854834,104.2890222,55.0
Camping & Hiking,Diamondback Women's Serene Classic Comfort Bi,Sheffield,United Kingdom,Second Class,Late delivery,High Risk,4,1,299.980011,36.0,53.38112899999999,-1.470085,62.27
Camping & Hiking,Diamondback Women's Serene Classic Comfort Bi,Lora of the River,Spain,Second Class,Late delivery,High Risk,4,1,299.980011,79.16000366,37.5442706,-4.7277528,57.21
Fishing,Field & Stream Sportsman 16 Gun Fire Safe,Munich,Germany,Second Class,Late delivery,High Risk,4,1,399.980011,97.44000244,48.1351253,11.5819806,60.7
Cleats,Perfect Fitness Perfect Rip Deck,San Salvador,El Salvador,Second Class,Late delivery,High Risk,4,1,59.99000168,-47.99000168,13.6929403,-89.2181911,60.0
Men's Footwear,Nike Men's CJ Elite 2 TD Football Cleat,Valinhos,Brazil,Second Class,Late delivery,High Risk,4,1,129.9900055,45.5,-22.9691172,-46.9958185,58.61
Men's Footwear,Nike Men's CJ Elite 2 TD Football Cleat,Puebla,Mexico,Second Class,Late delivery,High Risk,4,1,129.9900055,39.47000122,19.0414398,-98.2062727,54.48
Cleats,Perfect Fitness Perfect Rip Deck,Saltillo,Mexico,Second Class,Late delivery,High Risk,4,1,59.99000168,-94.02999878,25.4383234,-100.973678,65.53
Cleats,Perfect Fitness Perfect Rip Deck,Saltillo,Mexico,Second Class,Late delivery,High Risk,4,1,59.99000168,12.47000027,25.4383234,-100.973678,65.53
Men's Footwear,Nike Men's CJ Elite 2 TD Football Cleat,Aracaju,Brazil,Second Class,Late delivery,High Risk,4,1,129.9900055,16.92000008,-10.9265404,-37.0731147,58.61
Men's Footwear,Nike Men's CJ Elite 2 TD Football Cleat,Hidalgo,Mexico,Second Class,Late delivery,High Risk,4,1,129.9900055,14.14000034,19.6924882,-100.5553209,54.48
Cleats,Perfect Fitness Perfect Rip Deck,Puebla,Mexico,Second Class,Late delivery,High Risk,4,1,59.99000168,18.29000092,19.0414398,-98.2062727,65.53
Shop By Sport,Under Armour Girls' Toddler Spine Surge Runni,Aracaju,Brazil,Second Class,Late delivery,High Risk,4,1,39.99000168,13.39000034,-10.9265404,-37.0731147,76.03
Shop By Sport,Under Armour Girls' Toddler Spine Surge Runni,San Salvador,El Salvador,Second Class,Late delivery,High Risk,4,1,39.99000168,3.799999952,13.6929403,-89.2181911,68.91
Women's Apparel,Nike Men's Dri-FIT Victory Golf Polo,Aracaju,Brazil,Second Class,Late delivery,High Risk,4,1,50.0,12.75,-10.9265404,-37.0731147,72.49
Electronics,Titleist Pro V1x High Numbers Personalized Go,San Salvador,El Salvador,Second Class,Late delivery,High Risk,4,1,51.99000168,-10.52000046,13.6929403,-89.2181911,74.38
Camping & Hiking,Diamondback Women's Serene Classic Comfort Bi,Brasilia,Brazil,Second Class,Late delivery,High Risk,4,1,299.980011,102.9499969,-15.7975154,-47.89188739999999,63.14
Pet Supplies,Adult dog supplies,Palembang,Indonesia,Second Class,Late delivery,High Risk,4,1,84.40000153,20.88999939,-2.9760735,104.7754307,48.33
Pet Supplies,Adult dog supplies,Jakarta,Indonesia,Second Class,Late delivery,High Risk,4,1,84.40000153,6.239999771,-6.1944491,106.8229198,48.33
Women's Clothing,Summer dresses,Xinyi,China,Second Class,Late delivery,High Risk,4,1,215.8200073,67.98000336,22.3542899,110.9471,77.0
Women's Apparel,Nike Men's Dri-FIT Victory Golf Polo,Kuala Lumpur,Malaysia,Second Class,Late delivery,High Risk,4,1,50.0,12.03999996,3.1499297,101.6944651,65.56
Shop By Sport,Under Armour Girls' Toddler Spine Surge Runni,Perth,Australia,Second Class,Late delivery,High Risk,4,1,39.99000168,10.65999985,-31.9513993,115.8616783,75.69
Camping & Hiking,Diamondback Women's Serene Classic Comfort Bi,Perth,Australia,Second Class,Late delivery,High Risk,4,1,299.980011,21.60000038,-31.9513993,115.8616783,63.19
Camping & Hiking,Diamondback Women's Serene Classic Comfort Bi,Kollam,India,Second Class,Late delivery,High Risk,4,1,299.980011,129.5899963,8.8932118,76.6141396,69.11
Fishing,Field & Stream Sportsman 16 Gun Fire Safe,Kollam,India,Second Class,Late delivery,High Risk,4,1,399.980011,76.80000305,8.8932118,76.6141396,60.83
Shop By Sport,Under Armour Girls' Toddler Spine Surge Runni,Sheffield,United Kingdom,Second Class,Late delivery,High Risk,4,1,79.98000336,22.95999908,53.38112899999999,-1.470085,62.24
Cleats,Perfect Fitness Perfect Rip Deck,Saltillo,Mexico,Second Class,Late delivery,High Risk,4,1,119.9800034,26.10000038,25.4383234,-100.973678,65.53
Women's Apparel,Nike Men's Dri-FIT Victory Golf Polo,Brasilia,Brazil,Second Class,Late delivery,High Risk,4,1,100.0,42.63000107,-15.7975154,-47.89188739999999,72.49
Cleats,Perfect Fitness Perfect Rip Deck,Irkutsk,Russia,Second Class,Late delivery,High Risk,4,1,179.9700012,54.63999939,52.2854834,104.2890222,80.0
Cardio Equipment,Nike Men's Free 5.0+ Running Shoe,San Salvador,El Salvador,Second Class,Late delivery,High Risk,4,1,299.9700012,80.90000153,13.6929403,-89.2181911,61.08
Cleats,Perfect Fitness Perfect Rip Deck,Brasilia,Brazil,Second Class,Late delivery,High Risk,4,1,179.9700012,-42.83000183,-15.7975154,-47.89188739999999,71.94
Cleats,Perfect Fitness Perfect Rip Deck,Lime,Peru,Second Class,Late delivery,High Risk,4,1,179.9700012,75.3199997,-12.046374,-77.0427934,73.33
Cleats,Perfect Fitness Perfect Rip Deck,Puebla,Mexico,Second Class,Late delivery,High Risk,4,1,179.9700012,50.18000031,19.0414398,-98.2062727,65.53
Girls' Apparel,TYR Boys' Team Digi Jammer,Hidalgo,Mexico,Second Class,Late delivery,High Risk,4,1,119.9700012,39.04999924,19.6924882,-100.5553209,50.83
Cleats,Perfect Fitness Perfect Rip Deck,Perth,Australia,Second Class,Late delivery,High Risk,4,1,179.9700012,54.79999924,-31.9513993,115.8616783,66.97
Women's Apparel,Nike Men's Dri-FIT Victory Golf Polo,Seville,Spain,Second Class,Late delivery,High Risk,4,1,200.0,-125.7900009,37.3890924,-5.9844589,73.33
Shop By Sport,Under Armour Girls' Toddler Spine Surge Runni,Messina,Italy,Second Class,Late delivery,High Risk,4,1,159.9600067,41.99000168,38.1937342,15.5542088,65.91
Cardio Equipment,Nike Men's Free 5.0+ Running Shoe,Aracaju,Brazil,Second Class,Late delivery,High Risk,4,1,399.9599915,98.55000305,-10.9265404,-37.0731147,74.43
Women's Apparel,Nike Men's Dri-FIT Victory Golf Polo,Brasilia,Brazil,Second Class,Late delivery,High Risk,4,1,200.0,54.0,-15.7975154,-47.89188739999999,72.49
Women's Apparel,Nike Men's Dri-FIT Victory Golf Polo,San Salvador,El Salvador,Second Class,Late delivery,High Risk,4,1,200.0,33.84000015,13.6929403,-89.2181911,66.5
Shop By Sport,Under Armour Girls' Toddler Spine Surge Runni,Lime,Peru,Second Class,Late delivery,High Risk,4,1,159.9600067,62.95999908,-12.046374,-77.0427934,
Women's Apparel,Nike Men's Dri-FIT Victory Golf Polo,Brasilia,Brazil,Second Class,Late delivery,High Risk,4,1,200.0,66.0,-15.7975154,-47.89188739999999,72.49
Women's Apparel,Nike Men's Dri-FIT Victory Golf Polo,Seattle,USA,Second Class,Late delivery,High Risk,4,1,200.0,93.05999756,47.6061389,-122.3328481,66.26
Cleats,Perfect Fitness Perfect Rip Deck,Rennes,France,Second Class,Late delivery,High Risk,4,1,299.9500122,138.1600037,48.117266,-1.6777926,66.07
Women's Apparel,Nike Men's Dri-FIT Victory Golf Polo,Rennes,France,Second Class,Late delivery,High Risk,4,1,250.0,71.05000305,48.117266,-1.6777926,69.85
Baseball & Softball,adidas Men's F10 Messi TRX FG Soccer Cleat,Saltillo,Mexico,Second Class,Late delivery,High Risk,4,1,299.9500122,103.6600037,25.4383234,-100.973678,37.5
Cardio Equipment,Nike Men's Free 5.0+ Running Shoe,Puebla,Mexico,Second Class,Late delivery,High Risk,4,1,499.9500122,0.0,19.0414398,-98.2062727,71.22
Electronics,Bridgestone e6 Straight Distance NFL San Dieg,Hidalgo,Mexico,Second Class,Late delivery,High Risk,4,1,159.9499969,11.34000015,19.6924882,-100.5553209,59.23
Tennis & Racquet,Nike Men's Comfort 2 Slide,Ashgabat,Turkmenistan,Second Class,Late delivery,High Risk,4,1,224.9499969,90.37999725,37.9600766,58.32606289999999,
Shop By Sport,Under Armour Girls' Toddler Spine Surge Runni,Ashgabat,Turkmenistan,Second Class,Late delivery,High Risk,4,1,199.9499969,85.23999786,37.9600766,58.32606289999999,
Women's Apparel,Nike Men's Dri-FIT Victory Golf Polo,Nantes,France,Second Class,Shipping canceled,High Risk,4,0,50.0,2.809999943,47.218371,-1.553621,69.85
Fishing,Field & Stream Sportsman 16 Gun Fire Safe,Nantes,France,Second Class,Shipping canceled,High Risk,4,0,399.980011,87.0,47.218371,-1.553621,61.2
Camping & Hiking,Diamondback Women's Serene Classic Comfort Bi,Nantes,France,Second Class,Shipping canceled,High Risk,4,0,299.980011,72.20999908,47.218371,-1.553621,62.03
Cameras ,Web Camera,Montauban,France,Second Class,Late delivery,High Risk,4,1,452.0400085,135.8300018,44.0221252,1.3529599,60.69
Shop By Sport,Under Armour Girls' Toddler Spine Surge Runni,Le Chesnay,France,Second Class,Late delivery,High Risk,4,1,39.99000168,3.0,48.8262851,2.128365,71.24
Fishing,Field & Stream Sportsman 16 Gun Fire Safe,Munich,Germany,Second Class,Late delivery,High Risk,4,1,399.980011,79.80000305,48.1351253,11.5819806,60.7
Electronics,Under Armour Women's Ignite PIP VI Slide,Aschaffenburg,Germany,Second Class,Late delivery,High Risk,4,1,31.98999977,11.94999981,49.9806625,9.1355554,56.5
Men's Footwear,Nike Men's CJ Elite 2 TD Football Cleat,Luxembourg,Luxembourg,Second Class,Late delivery,High Risk,4,1,129.9900055,33.68999863,49.815273,6.129582999999999,
Men's Footwear,Nike Men's CJ Elite 2 TD Football Cleat,The Seyne-sur-Mer,France,Second Class,Late delivery,High Risk,4,1,129.9900055,56.15999985,43.0990256,5.884606,63.12
Men's Footwear,Nike Men's CJ Elite 2 TD Football Cleat,Newcastle upon Tyne,United Kingdom,Second Class,Late delivery,High Risk,4,1,129.9900055,49.18999863,54.978252,-1.61778,58.25
Men's Footwear,Nike Men's CJ Elite 2 TD Football Cleat,Metz,France,Second Class,Late delivery,High Risk,4,1,129.9900055,1.139999986,49.11786009999999,6.1760223,63.12
Men's Footwear,Nike Men's CJ Elite 2 TD Football Cleat,Metz,France,Second Class,Late delivery,High Risk,4,1,129.9900055,41.04999924,49.11786009999999,6.1760223,63.12
Men's Footwear,Nike Men's CJ Elite 2 TD Football Cleat,Maisons-Laffitte,France,Second Class,Late delivery,High Risk,4,1,129.9900055,27.62000084,48.947545,2.1423899,63.12
Men's Footwear,Nike Men's CJ Elite 2 TD Football Cleat,Walsall,United Kingdom,Second Class,Late delivery,High Risk,4,1,129.9900055,46.79999924,52.586214,-1.982919,58.25
Women's Apparel,Nike Men's Dri-FIT Victory Golf Polo,Dublin,Ireland,Second Class,Late delivery,High Risk,4,1,50.0,-30.79999924,53.3498053,-6.2603097,55.0
Fishing,Field & Stream Sportsman 16 Gun Fire Safe,Dublin,Ireland,Second Class,Late delivery,High Risk,4,1,399.980011,-316.7799988,53.3498053,-6.2603097,32.86
Camping & Hiking,Diamondback Women's Serene Classic Comfort Bi,Maisons-Laffitte,France,Second Class,Late delivery,High Risk,4,1,299.980011,74.09999847,48.947545,2.1423899,62.03
Fishing,Field & Stream Sportsman 16 Gun Fire Safe,Florence,Italy,Second Class,Late delivery,High Risk,4,1,399.980011,-240.4100037,43.7699685,11.2576706,45.88
Hunting & Shooting,insta-bed Neverflat Air Mattress,The Seyne-sur-Mer,France,Second Class,Late delivery,High Risk,4,1,149.9900055,46.11999893,43.0990256,5.884606,
Camping & Hiking,Diamondback Women's Serene Classic Comfort Bi,Vienna,Austria,Second Class,Shipping canceled,High Risk,4,0,299.980011,-60.75,48.20806959999999,16.3713095,82.22
Men's Footwear,Nike Men's CJ Elite 2 TD Football Cleat,Matagalpa,Nicaragua,Second Class,Shipping canceled,High Risk,4,0,129.9900055,60.52000046,12.9290069,-85.9151211,45.0
Men's Footwear,Nike Men's CJ Elite 2 TD Football Cleat,Matagalpa,Nicaragua,Second Class,Shipping canceled,High Risk,4,0,129.9900055,34.93999863,12.9290069,-85.9151211,45.0
Soccer,Nike Men's Fingertrap Max Training Shoe,San Pedro Sula,Honduras,Second Class,Late delivery,High Risk,4,1,124.9899979,9.279999733,15.5038827,-88.01386190000001,
Cardio Equipment,Nike Men's Free 5.0+ Running Shoe,Holguin,Cuba,Second Class,Late delivery,High Risk,4,1,99.98999786,21.42000008,20.8872981,-76.2599062,72.2
Men's Footwear,Nike Men's CJ Elite 2 TD Football Cleat,Araguaina,Brazil,Second Class,Late delivery,High Risk,4,1,129.9900055,-20.12999916,-7.191563299999999,-48.2094801,58.61
Men's Footwear,Nike Men's CJ Elite 2 TD Football Cleat,Cienfuegos,Cuba,Second Class,Late delivery,High Risk,4,1,129.9900055,42.93999863,22.1599753,-80.4437781,60.73
Cleats,Perfect Fitness Perfect Rip Deck,Holguin,Cuba,Second Class,Late delivery,High Risk,4,1,59.99000168,16.3199997,20.8872981,-76.2599062,71.91
Cleats,Perfect Fitness Perfect Rip Deck,Holguin,Cuba,Second Class,Late delivery,High Risk,4,1,59.99000168,3.960000038,20.8872981,-76.2599062,71.91
Men's Footwear,Nike Men's CJ Elite 2 TD Football Cleat,San Pedro Sula,Honduras,Second Class,Late delivery,High Risk,4,1,129.9900055,47.77000046,15.5038827,-88.01386190000001,52.16
Cardio Equipment,Nike Men's Free 5.0+ Running Shoe,Santo Domingo,Dominican Republic,Second Class,Late delivery,High Risk,4,1,99.98999786,18.52000046,18.4626178,-69.93609239999999,60.53
Men's Footwear,Nike Men's CJ Elite 2 TD Football Cleat,New Villa,Guatemala,Second Class,Late delivery,High Risk,4,1,129.9900055,-11.3199997,15.783471,-90.230759,57.39
Cleats,Perfect Fitness Perfect Rip Deck,San Miguelito,Panama,Second Class,Late delivery,High Risk,4,1,59.99000168,23.68000031,9.0485176,-79.5082571,65.58
Men's Footwear,Nike Men's CJ Elite 2 TD Football Cleat,San Miguelito,Panama,Second Class,Late delivery,High Risk,4,1,129.9900055,34.63999939,9.0485176,-79.5082571,51.0
Camping & Hiking,Diamondback Women's Serene Classic Comfort Bi,New Villa,Guatemala,Second Class,Late delivery,High Risk,4,1,299.980011,50.40000153,15.783471,-90.230759,61.36
Women's Apparel,Nike Men's Dri-FIT Victory Golf Polo,Bogota,Colombia,Second Class,Shipping canceled,High Risk,4,0,50.0,13.5,4.648594,-74.104466,67.19
Men's Footwear,Nike Men's CJ Elite 2 TD Football Cleat,Baghdad,Iraq,Second Class,Shipping canceled,High Risk,4,0,129.9900055,12.77999973,33.315241,44.3660671,60.0
Men's Footwear,Nike Men's CJ Elite 2 TD Football Cleat,Newcastle,Australia,Second Class,Late delivery,High Risk,4,1,129.9900055,41.61000061,-32.9282712,151.7816802,69.21
Camping & Hiking,Diamondback Women's Serene Classic Comfort Bi,Jakarta,Indonesia,Second Class,Late delivery,High Risk,4,1,299.980011,79.37000275,-6.1944491,106.8229198,81.94
Camping & Hiking,Diamondback Women's Serene Classic Comfort Bi,Ulaanbaatar,Mongolia,Second Class,Late delivery,High Risk,4,1,299.980011,-89.01000214,47.9220509,106.9155007,
Camping & Hiking,Diamondback Women's Serene Classic Comfort Bi,Ulaanbaatar,Mongolia,Second Class,Late delivery,High Risk,4,1,299.980011,-78.94999695,47.9220509,106.9155007,
Fishing,Field & Stream Sportsman 16 Gun Fire Safe,Jakarta,Indonesia,Second Class,Late delivery,High Risk,4,1,399.980011,106.4100037,-6.1944491,106.8229198,64.74
Fishing,Field & Stream Sportsman 16 Gun Fire Safe,Brisbane,Australia,Second Class,Late delivery,High Risk,4,1,399.980011,164.6300049,-27.4704528,153.0260341,55.63
Video Games,Fighting video games,Shah Alam,Malaysia,Second Class,Late delivery,High Risk,4,1,39.75,5.880000114,3.073281,101.518461,
Baby ,Baby sweater,Chongqing,China,Second Class,Shipping canceled,High Risk,4,0,59.08000183,26.09000015,29.5656843,106.5511838,35.0
Cleats,Perfect Fitness Perfect Rip Deck,San Diego,USA,Second Class,Late delivery,High Risk,4,1,59.99000168,14.25,32.715738,-117.1610838,68.0
Women's Apparel,Nike Men's Dri-FIT Victory Golf Polo,Toronto,Canada,Second Class,Late delivery,High Risk,4,1,50.0,-1.409999967,43.653226,-79.3831843,82.5
Men's Footwear,Nike Men's CJ Elite 2 TD Football Cleat,San Francisco,USA,Second Class,Late delivery,High Risk,4,1,129.9900055,20.59000015,37.7749295,-122.4194155,60.68
Women's Apparel,Nike Men's Dri-FIT Victory Golf Polo,Liverpool,United Kingdom,Second Class,Shipping canceled,High Risk,4,0,100.0,42.5699997,53.4083714,-2.9915726,67.74
Cleats,Perfect Fitness Perfect Rip Deck,Aschaffenburg,Germany,Second Class,Late delivery,High Risk,4,1,119.9800034,34.06000137,49.9806625,9.1355554,65.53
Women's Apparel,Nike Men's Dri-FIT Victory Golf Polo,The Seyne-sur-Mer,France,Second Class,Late delivery,High Risk,4,1,100.0,3.549999952,43.0990256,5.884606,69.85
Cleats,Perfect Fitness Perfect Rip Deck,Araguaina,Brazil,Second Class,Late delivery,High Risk,4,1,119.9800034,47.61999893,-7.191563299999999,-48.2094801,71.94
Women's Apparel,Nike Men's Dri-FIT Victory Golf Polo,Araguaina,Brazil,Second Class,Late delivery,High Risk,4,1,100.0,9.300000191,-7.191563299999999,-48.2094801,72.49
Cleats,Perfect Fitness Perfect Rip Deck,Santo Domingo,Dominican Republic,Second Class,Late delivery,High Risk,4,1,119.9800034,50.75,18.4626178,-69.93609239999999,70.93
Women's Apparel,Nike Men's Dri-FIT Victory Golf Polo,Araranguá,Brazil,Second Class,Late delivery,High Risk,4,1,100.0,6.300000191,-28.9370964,-49.4840256,72.49
Women's Apparel,Nike Men's Dri-FIT Victory Golf Polo,Santo Domingo,Dominican Republic,Second Class,Late delivery,High Risk,4,1,100.0,34.5,18.4626178,-69.93609239999999,69.71
Cardio Equipment,Nike Men's Free 5.0+ Running Shoe,Bogota,Colombia,Second Class,Shipping canceled,High Risk,4,0,199.9799957,52.90999985,4.648594,-74.104466,64.17
Women's Apparel,Nike Men's Dri-FIT Victory Golf Polo,Bogota,Colombia,Second Class,Shipping canceled,High Risk,4,0,100.0,40.18000031,4.648594,-74.104466,67.19
Women's Apparel,Nike Men's Dri-FIT Victory Golf Polo,Bogota,Colombia,Second Class,Shipping canceled,High Risk,4,0,100.0,-64.0,4.648594,-74.104466,67.19
Cleats,Perfect Fitness Perfect Rip Deck,Baghdad,Iraq,Second Class,Shipping canceled,High Risk,4,0,119.9800034,36.95000076,33.315241,44.3660671,77.31
Cardio Equipment,Nike Men's Free 5.0+ Running Shoe,Denpasar,Indonesia,Second Class,Late delivery,High Risk,4,1,199.9799957,-156.7799988,-8.670458199999999,115.2126293,62.27
Shop By Sport,Under Armour Girls' Toddler Spine Surge Runni,Pingdingshan,China,Second Class,Late delivery,High Risk,4,1,79.98000336,39.99000168,33.7660899,113.19241,74.0
Shop By Sport,Under Armour Girls' Toddler Spine Surge Runni,Abha,Saudi Arabia,Second Class,Late delivery,High Risk,4,1,79.98000336,24.60000038,18.2464685,42.5117238,65.56
Cardio Equipment,Nike Men's Free 5.0+ Running Shoe,Philadelphia,USA,Second Class,Late delivery,High Risk,4,1,199.9799957,92.11000061,39.9525839,-75.1652215,69.37
Cleats,Perfect Fitness Perfect Rip Deck,Philadelphia,USA,Second Class,Late delivery,High Risk,4,1,119.9800034,6.690000057,39.9525839,-75.1652215,68.0
Cleats,Perfect Fitness Perfect Rip Deck,San Francisco,USA,Second Class,Late delivery,High Risk,4,1,119.9800034,11.69999981,37.7749295,-122.4194155,68.0
Golf Balls,Glove It Women's Imperial Golf Glove,San Francisco,USA,Second Class,Late delivery,High Risk,4,1,39.97999954,-0.779999971,37.7749295,-122.4194155,62.38
Women's Apparel,Nike Men's Dri-FIT Victory Golf Polo,Ibadan,Nigeria,Second Class,Shipping canceled,High Risk,4,0,150.0,66.0,7.3775355,3.9470396,64.9
Cardio Equipment,Nike Men's Free 5.0+ Running Shoe,Nantes,France,Second Class,Shipping canceled,High Risk,4,0,299.9700012,15.86999989,47.218371,-1.553621,70.84
Cleats,Perfect Fitness Perfect Rip Deck,Le Chesnay,France,Second Class,Late delivery,High Risk,4,1,179.9700012,10.32999992,48.8262851,2.128365,66.07
Girls' Apparel,TYR Boys' Team Digi Jammer,Munich,Germany,Second Class,Late delivery,High Risk,4,1,119.9700012,58.79000092,48.1351253,11.5819806,50.0
Cardio Equipment,Nike Men's Free 5.0+ Running Shoe,Clermont-Ferrand,France,Second Class,Late delivery,High Risk,4,1,299.9700012,45.09000015,45.793516,3.0794951,70.84
Cleats,Perfect Fitness Perfect Rip Deck,Luxembourg,Luxembourg,Second Class,Late delivery,High Risk,4,1,179.9700012,81.95999908,49.815273,6.129582999999999,
Accessories,Team Golf New England Patriots Putter Grip,Luxembourg,Luxembourg,Second Class,Late delivery,High Risk,4,1,74.97000122,29.69000053,49.815273,6.129582999999999,
Electronics,Bridgestone e6 Straight Distance NFL Carolina,Vienna,Austria,Second Class,Shipping canceled,High Risk,4,0,95.97000122,-58.88999939,48.20806959999999,16.3713095,
Shop By Sport,Under Armour Girls' Toddler Spine Surge Runni,Santo Domingo,Dominican Republic,Second Class,Late delivery,High Risk,4,1,119.9700012,28.34000015,18.4626178,-69.93609239999999,56.67
Shop By Sport,Under Armour Girls' Toddler Spine Surge Runni,New Villa,Guatemala,Second Class,Late delivery,High Risk,4,1,119.9700012,37.34000015,15.783471,-90.230759,68.33
Cleats,Perfect Fitness Perfect Rip Deck,Dewas,India,Second Class,Late delivery,High Risk,4,1,179.9700012,49.3199997,22.9675929,76.0534454,67.03
Electronics,Titleist Pro V1x High Numbers Personalized Go,Padang,Indonesia,Second Class,Late delivery,High Risk,4,1,155.9700012,42.0699997,-0.948041,100.3630901,59.38
Cleats,Perfect Fitness Perfect Rip Deck,Liverpool,United Kingdom,Second Class,Shipping canceled,High Risk,4,0,239.9600067,67.19000244,53.4083714,-2.9915726,62.58
Women's Apparel,Nike Men's Dri-FIT Victory Golf Polo,Munich,Germany,Second Class,Late delivery,High Risk,4,1,200.0,62.59999847,48.1351253,11.5819806,69.27
Women's Apparel,Nike Men's Dri-FIT Victory Golf Polo,Amberes,Belgium,Second Class,Late delivery,High Risk,4,1,200.0,42.0,51.2199302,4.414990299999999,74.67
Cleats,Perfect Fitness Perfect Rip Deck,Florence,Italy,Second Class,Late delivery,High Risk,4,1,239.9600067,111.6999969,43.7699685,11.2576706,70.94
Cleats,Perfect Fitness Perfect Rip Deck,Lime,Peru,Second Class,Late delivery,High Risk,4,1,239.9600067,110.5699997,-12.046374,-77.0427934,73.33
Shop By Sport,Under Armour Girls' Toddler Spine Surge Runni,Santo Domingo,Dominican Republic,Second Class,Late delivery,High Risk,4,1,159.9600067,71.33000183,18.4626178,-69.93609239999999,56.67
Women's Apparel,Nike Men's Dri-FIT Victory Golf Polo,San Miguelito,Panama,Second Class,Late delivery,High Risk,4,1,200.0,84.59999847,9.0485176,-79.5082571,67.0
Girls' Apparel,adidas Men's Germany Black Crest Away Tee,Medan,Indonesia,Second Class,Late delivery,High Risk,4,1,100.0,27.22999954,3.5951956,98.6722227,65.0
Women's Apparel,Nike Men's Dri-FIT Victory Golf Polo,Padang,Indonesia,Second Class,Late delivery,High Risk,4,1,200.0,61.34999847,-0.948041,100.3630901,71.09
Women's Apparel,Nike Men's Dri-FIT Victory Golf Polo,Ulaanbaatar,Mongolia,Second Class,Late delivery,High Risk,4,1,200.0,2.089999914,47.9220509,106.9155007,
Boxing & MMA,Under Armour Women's Micro G Skulpt Running S,Philadelphia,USA,Second Class,Late delivery,High Risk,4,1,219.8800049,100.2699966,39.9525839,-75.1652215,78.33
Cleats,Perfect Fitness Perfect Rip Deck,Nantes,France,Second Class,Shipping canceled,High Risk,4,0,299.9500122,112.7799988,47.218371,-1.553621,66.07
Cardio Equipment,Nike Men's Free 5.0+ Running Shoe,Florence,Italy,Second Class,Late delivery,High Risk,4,1,499.9500122,-47.25,43.7699685,11.2576706,68.36
Cleats,Perfect Fitness Perfect Rip Deck,The Seyne-sur-Mer,France,Second Class,Late delivery,High Risk,4,1,299.9500122,110.9800034,43.0990256,5.884606,66.07
Cleats,Perfect Fitness Perfect Rip Deck,Clermont-Ferrand,France,Second Class,Late delivery,High Risk,4,1,299.9500122,65.23999786,45.793516,3.0794951,66.07
Shop By Sport,Under Armour Girls' Toddler Spine Surge Runni,Luxembourg,Luxembourg,Second Class,Late delivery,High Risk,4,1,199.9499969,97.0,49.815273,6.129582999999999,
Women's Apparel,Nike Men's Dri-FIT Victory Golf Polo,Metz,France,Second Class,Late delivery,High Risk,4,1,250.0,32.75999832,49.11786009999999,6.1760223,69.85
Shop By Sport,Under Armour Girls' Toddler Spine Surge Runni,Vienna,Austria,Second Class,Shipping canceled,High Risk,4,0,199.9499969,31.94000053,48.20806959999999,16.3713095,48.18
Cardio Equipment,Nike Men's Free 5.0+ Running Shoe,Cienfuegos,Cuba,Second Class,Late delivery,High Risk,4,1,499.9500122,0.0,22.1599753,-80.4437781,72.2
Cardio Equipment,Nike Men's Free 5.0+ Running Shoe,Lime,Peru,Second Class,Late delivery,High Risk,4,1,499.9500122,165.3600006,-12.046374,-77.0427934,57.27
Cardio Equipment,Nike Men's Free 5.0+ Running Shoe,Cuscatancingo,El Salvador,Second Class,Late delivery,High Risk,4,1,499.9500122,-303.4500122,13.7565422,-89.184883,61.08
Shop By Sport,Under Armour Girls' Toddler Spine Surge Runni,Holguin,Cuba,Second Class,Late delivery,High Risk,4,1,199.9499969,71.12999725,20.8872981,-76.2599062,67.33
Shop By Sport,Under Armour Girls' Toddler Spine Surge Runni,Santiago de los Caballeros,Dominican Republic,Second Class,Late delivery,High Risk,4,1,199.9499969,44.79000092,19.4791963,-70.6930568,56.67
Cardio Equipment,Nike Men's Free 5.0+ Running Shoe,Araranguá,Brazil,Second Class,Late delivery,High Risk,4,1,499.9500122,249.9799957,-28.9370964,-49.4840256,74.43
Cleats,Perfect Fitness Perfect Rip Deck,Santo Domingo,Dominican Republic,Second Class,Late delivery,High Risk,4,1,299.9500122,108.3399963,18.4626178,-69.93609239999999,70.93
Women's Apparel,Nike Men's Dri-FIT Victory Golf Polo,Araranguá,Brazil,Second Class,Late delivery,High Risk,4,1,250.0,-152.1000061,-28.9370964,-49.4840256,72.49
Cleats,Perfect Fitness Perfect Rip Deck,Bogota,Colombia,Second Class,Shipping canceled,High Risk,4,0,299.9500122,138.8899994,4.648594,-74.104466,59.27
Cleats,Perfect Fitness Perfect Rip Deck,Baghdad,Iraq,Second Class,Shipping canceled,High Risk,4,0,299.9500122,-73.16000366,33.315241,44.3660671,77.31
Cleats,Perfect Fitness Perfect Rip Deck,Papakura,New Zealand,Second Class,Late delivery,High Risk,4,1,299.9500122,85.79000092,-37.0624039,174.9420877,52.97
Golf Balls,Hirzl Women's Soffft Flex Golf Glove,Newcastle,Australia,Second Class,Late delivery,High Risk,4,1,89.94999695,3.349999905,-32.9282712,151.7816802,69.29
Cardio Equipment,Nike Men's Free 5.0+ Running Shoe,Toronto,Canada,Second Class,Late delivery,High Risk,4,1,499.9500122,35.43000031,43.653226,-79.3831843,82.31
Cleats,Perfect Fitness Perfect Rip Deck,Los Mochis,Mexico,Second Class,Late delivery,High Risk,4,1,239.9600067,2.349999905,25.7904657,-108.985882,65.53
Cleats,Perfect Fitness Perfect Rip Deck,Manizales,Colombia,Second Class,Late delivery,High Risk,4,1,239.9600067,-634.9299927,5.0629743,-75.5027698,59.27
Cleats,Perfect Fitness Perfect Rip Deck,Saint Clare,Cuba,Second Class,Late delivery,High Risk,4,1,239.9600067,103.6600037,22.424398,-79.9416549,71.91
Cleats,Perfect Fitness Perfect Rip Deck,Curitiba,Brazil,Second Class,Late delivery,High Risk,4,1,239.9600067,16.32999992,-25.4268985,-49.2651984,71.94
Cleats,Perfect Fitness Perfect Rip Deck,Recife,Brazil,Second Class,Late delivery,High Risk,4,1,239.9600067,20.34000015,-8.0578381,-34.8828969,71.94
Shop By Sport,Under Armour Girls' Toddler Spine Surge Runni,Lion,Mexico,Second Class,Late delivery,High Risk,4,1,159.9600067,39.59000015,21.1250077,-101.6859605,68.85
Shop By Sport,Under Armour Girls' Toddler Spine Surge Runni,The Roman,Dominican Republic,Second Class,Late delivery,High Risk,4,1,159.9600067,42.33000183,18.735693,-70.162651,56.67
Cardio Equipment,Nike Men's Free 5.0+ Running Shoe,Behshahr,Iran,Second Class,Late delivery,High Risk,4,1,399.9599915,41.13000107,36.6987017,53.5422337,79.44
Cardio Equipment,Nike Men's Free 5.0+ Running Shoe,Caloundra,Australia,Second Class,Late delivery,High Risk,4,1,399.9599915,30.0,-26.8043999,153.1254643,69.2
Cleats,Perfect Fitness Perfect Rip Deck,Patna,India,Second Class,Late delivery,High Risk,4,1,239.9600067,15.11999989,25.5940947,85.1375645,67.03
Shop By Sport,Under Armour Girls' Toddler Spine Surge Runni,Lahore,Pakistan,Second Class,Late delivery,High Risk,4,1,159.9600067,24.45000076,31.5203696,74.35874729999999,
Women's Apparel,Nike Men's Dri-FIT Victory Golf Polo,Amritsar,India,Second Class,Late delivery,High Risk,4,1,200.0,80.36000061,31.6339793,74.8722642,62.41
Women's Apparel,Nike Men's Dri-FIT Victory Golf Polo,Puducherry,India,Second Class,Late delivery,High Risk,4,1,200.0,68.40000153,11.9415915,79.8083133,62.41
Trade-In,Glove It Urban Brick Golf Towel,Palmerston North,New Zealand,Second Class,Late delivery,High Risk,4,1,63.95999908,-10.25,-40.3544628,175.6097478,68.57
Cleats,Perfect Fitness Perfect Rip Deck,Pavlodar,Kazakhstan,Second Class,Late delivery,High Risk,4,1,239.9600067,47.50999832,52.2873032,76.9674023,70.0
Cleats,Perfect Fitness Perfect Rip Deck,Dhaka,Bangladesh,Second Class,Late delivery,High Risk,4,1,239.9600067,50.22000122,23.804093,90.4152376,62.0
Shop By Sport,Under Armour Girls' Toddler Spine Surge Runni,Doha,Qatar,Second Class,Late delivery,High Risk,4,1,159.9600067,-22.44000053,25.2854473,51.53103979999999,
Cardio Equipment,Nike Men's Free 5.0+ Running Shoe,Houston,USA,Second Class,Late delivery,High Risk,4,1,399.9599915,139.9900055,29.7600771,-95.3701108,69.37
Fitness Accessories,Under Armour Hustle Storm Medium Duffle Bag,Bolingbrook,USA,Second Class,Late delivery,High Risk,4,1,139.9600067,41.63000107,41.69864159999999,-88.0683955,73.33
Cleats,Perfect Fitness Perfect Rip Deck,Akron,USA,Second Class,Late delivery,High Risk,4,1,239.9600067,23.52000046,41.081199,-81.51883769999999,68.0
Cleats,Perfect Fitness Perfect Rip Deck,Detroit,USA,Second Class,Late delivery,High Risk,4,1,239.9600067,14.51000023,42.331427,-83.0457538,68.0
Cleats,Perfect Fitness Perfect Rip Deck,Detroit,USA,Second Class,Late delivery,High Risk,4,1,239.9600067,-68.38999939,42.331427,-83.0457538,68.0
Cleats,Perfect Fitness Perfect Rip Deck,Oakland,USA,Second Class,Late delivery,High Risk,4,1,239.9600067,56.15000153,37.8043514,-122.2711639,68.0
Cleats,Perfect Fitness Perfect Rip Deck,Lafayette,USA,Second Class,Late delivery,High Risk,4,1,239.9600067,-44.25999832,40.4167022,-86.87528689999999,68.0
Women's Apparel,Nike Men's Dri-FIT Victory Golf Polo,Des Moines,USA,Second Class,Late delivery,High Risk,4,1,200.0,93.12000275,47.4017661,-122.3242902,66.26
Women's Apparel,Nike Men's Dri-FIT Victory Golf Polo,Philadelphia,USA,Second Class,Late delivery,High Risk,4,1,200.0,18.89999962,39.9525839,-75.1652215,66.26
Shop By Sport,Under Armour Girls' Toddler Spine Surge Runni,Detroit,USA,Second Class,Late delivery,High Risk,4,1,159.9600067,40.31000137,42.331427,-83.0457538,67.9
Cleats,Perfect Fitness Perfect Rip Deck,Antananarivo,Madagascar,Second Class,Late delivery,High Risk,4,1,299.9500122,101.8300018,-18.9184607,47.5211293,
Women's Apparel,Nike Men's Dri-FIT Victory Golf Polo,Luanda,Angola,Second Class,Late delivery,High Risk,4,1,250.0,74.80000305,-8.8146556,13.2301756,70.0
Women's Apparel,Nike Men's Dri-FIT Victory Golf Polo,Lakes,Nigeria,Second Class,Late delivery,High Risk,4,1,250.0,-500.0,9.081999,8.675277,64.9
Electronics,Titleist Pro V1x High Numbers Golf Balls,Antananarivo,Madagascar,Second Class,Late delivery,High Risk,4,1,239.9499969,49.18999863,-18.9184607,47.5211293,
Cleats,Perfect Fitness Perfect Rip Deck,Khartoum,Sudan,Second Class,Late delivery,High Risk,4,1,299.9500122,30.73999977,15.597431,32.535587,
Cardio Equipment,Nike Women's Tempo Shorts,Strasbourg,France,Second Class,Late delivery,High Risk,4,1,150.0,68.40000153,48.5734053,7.752111299999999,70.84
Cleats,Perfect Fitness Perfect Rip Deck,Reims,France,Second Class,Late delivery,High Risk,4,1,299.9500122,124.0599976,49.258329,4.031696,66.07
Cleats,Perfect Fitness Perfect Rip Deck,Ajaccio,France,Second Class,Late delivery,High Risk,4,1,299.9500122,82.62000275,41.919229,8.738635,66.07
Shop By Sport,Under Armour Girls' Toddler Spine Surge Runni,West Bromwich,United Kingdom,Second Class,Late delivery,High Risk,4,1,199.9499969,76.41999817,52.517664,-1.995159,62.24
Women's Apparel,Nike Men's Dri-FIT Victory Golf Polo,Antony,France,Second Class,Late delivery,High Risk,4,1,250.0,17.80999947,48.75342149999999,2.3050433,69.85
Shop By Sport,Under Armour Girls' Toddler Spine Surge Runni,Six-Fours-les-Plages,France,Second Class,Late delivery,High Risk,4,1,199.9499969,35.33000183,43.093062,5.839225,71.24
Women's Apparel,Nike Men's Dri-FIT Victory Golf Polo,Leeds,United Kingdom,Second Class,Late delivery,High Risk,4,1,250.0,-138.3999939,53.8007554,-1.5490774,67.74
Shop By Sport,Under Armour Girls' Toddler Spine Surge Runni,Madrid,Spain,Second Class,Late delivery,High Risk,4,1,199.9499969,-82.98000336,40.41672790000001,-3.7032905,66.22
Shop By Sport,Under Armour Girls' Toddler Spine Surge Runni,Corbeil-Essonnes,France,Second Class,Late delivery,High Risk,4,1,199.9499969,74.68000031,48.6102599,2.474805,71.24
Women's Apparel,Nike Men's Dri-FIT Victory Golf Polo,Kerpen,Germany,Second Class,Late delivery,High Risk,4,1,250.0,12.0,50.8747592,6.6883728,69.27
Trade-In,Glove It Imperial Golf Towel,West Bromwich,United Kingdom,Second Class,Late delivery,High Risk,4,1,79.94999695,26.73999977,52.517664,-1.995159,
Trade-In,Glove It Women's Mod Oval 3-Zip Carry All Gol,Edinburgh,United Kingdom,Second Class,Late delivery,High Risk,4,1,109.9499969,-10.31000042,55.953252,-3.188267,
Women's Apparel,Nike Men's Dri-FIT Victory Golf Polo,Colchester,United Kingdom,Second Class,Late delivery,High Risk,4,1,250.0,100.8000031,51.895927,0.8918740000000001,67.74
Boxing & MMA,Under Armour Women's Micro G Skulpt Running S,Puebla,Mexico,Second Class,Late delivery,High Risk,4,1,274.8500061,125.1699982,19.0414398,-98.2062727,
Cardio Equipment,Nike Men's Free 5.0+ Running Shoe,Porto Alegre,Brazil,Second Class,Late delivery,High Risk,4,1,499.9500122,-326.7999878,-30.0368176,-51.2089887,74.43
Cardio Equipment,Nike Men's Free 5.0+ Running Shoe,Saint Clare,Cuba,Second Class,Late delivery,High Risk,4,1,499.9500122,125.9899979,22.424398,-79.9416549,72.2
Cleats,Perfect Fitness Perfect Rip Deck,Porto Alegre,Brazil,Second Class,Late delivery,High Risk,4,1,299.9500122,33.56000137,-30.0368176,-51.2089887,71.94
Cleats,Perfect Fitness Perfect Rip Deck,Santo Domingo,Dominican Republic,Second Class,Late delivery,High Risk,4,1,299.9500122,82.63999939,18.4626178,-69.93609239999999,70.93
Cleats,Perfect Fitness Perfect Rip Deck,Santo Domingo,Dominican Republic,Second Class,Late delivery,High Risk,4,1,299.9500122,71.26999664,18.4626178,-69.93609239999999,70.93
Women's Apparel,Nike Men's Dri-FIT Victory Golf Polo,Los Mochis,Mexico,Second Class,Late delivery,High Risk,4,1,250.0,109.25,25.7904657,-108.985882,70.05
Shop By Sport,Under Armour Girls' Toddler Spine Surge Runni,Tegucigalpa,Honduras,Second Class,Late delivery,High Risk,4,1,199.9499969,49.13000107,14.065049,-87.1715002,71.22
Girls' Apparel,adidas Men's Germany Black Crest Away Tee,Tlalpan,Mexico,Second Class,Late delivery,High Risk,4,1,125.0,30.23999977,19.2790911,-99.2114234,50.83
Women's Apparel,Nike Men's Dri-FIT Victory Golf Polo,Puebla,Mexico,Second Class,Late delivery,High Risk,4,1,250.0,95.44999695,19.0414398,-98.2062727,70.05
Shop By Sport,Under Armour Girls' Toddler Spine Surge Runni,Sonsonate,El Salvador,Second Class,Late delivery,High Risk,4,1,199.9499969,3.75,13.7172752,-89.723041,68.91
Cardio Equipment,Nike Men's Free 5.0+ Running Shoe,Mexicali,Mexico,Second Class,Late delivery,High Risk,4,1,499.9500122,39.59999847,32.6245389,-115.4522623,71.22
Cardio Equipment,Nike Men's Free 5.0+ Running Shoe,Mexicali,Mexico,Second Class,Late delivery,High Risk,4,1,499.9500122,159.6999969,32.6245389,-115.4522623,71.22
Women's Apparel,Nike Men's Dri-FIT Victory Golf Polo,Buenos Aires,Argentina,Second Class,Late delivery,High Risk,4,1,250.0,-35.86000061,-34.6036844,-58.3815591,59.75
Cardio Equipment,Nike Men's Free 5.0+ Running Shoe,Ho Chi Minh City,Vietnam,Second Class,Late delivery,High Risk,4,1,499.9500122,-1192.380005,10.8230989,106.6296638,72.22
Cleats,Perfect Fitness Perfect Rip Deck,Sari,Iran,Second Class,Late delivery,High Risk,4,1,299.9500122,55.25999832,36.5658729,53.0586328,63.33
Cleats,Perfect Fitness Perfect Rip Deck,Medan,Indonesia,Second Class,Late delivery,High Risk,4,1,299.9500122,-3.390000105,3.5951956,98.6722227,70.95
Shop By Sport,Under Armour Girls' Toddler Spine Surge Runni,Ho Chi Minh City,Vietnam,Second Class,Late delivery,High Risk,4,1,199.9499969,47.02999878,10.8230989,106.6296638,
Women's Apparel,Nike Men's Dri-FIT Victory Golf Polo,Puducherry,India,Second Class,Late delivery,High Risk,4,1,250.0,115.1999969,11.9415915,79.8083133,62.41
Women's Apparel,Nike Men's Dri-FIT Victory Golf Polo,Bogor,Indonesia,Second Class,Late delivery,High Risk,4,1,250.0,-550.0,-6.597146899999999,106.8060388,71.09
Women's Apparel,Nike Men's Dri-FIT Victory Golf Polo,Caloundra,Australia,Second Class,Late delivery,High Risk,4,1,250.0,52.20000076,-26.8043999,153.1254643,70.43
Women's Apparel,Nike Men's Dri-FIT Victory Golf Polo,Huizhou,China,Second Class,Late delivery,High Risk,4,1,250.0,63.38000107,23.1125099,114.41552,76.49
Trade-In,Glove It Imperial Golf Towel,Behshahr,Iran,Second Class,Late delivery,High Risk,4,1,79.94999695,13.46000004,36.6987017,53.5422337,
Accessories,Team Golf Tennessee Volunteers Putter Grip,Patna,India,Second Class,Late delivery,High Risk,4,1,124.9499969,53.13000107,25.5940947,85.1375645,58.33
Cardio Equipment,Nike Men's Free 5.0+ Running Shoe,Leominster,USA,Second Class,Late delivery,High Risk,4,1,499.9500122,116.2399979,42.5250906,-71.759794,69.37
Cardio Equipment,Nike Men's Free 5.0+ Running Shoe,Lafayette,USA,Second Class,Late delivery,High Risk,4,1,499.9500122,215.9799957,40.4167022,-86.87528689999999,69.37
Cleats,Perfect Fitness Perfect Rip Deck,San Francisco,USA,Second Class,Late delivery,High Risk,4,1,299.9500122,72.73999786,37.7749295,-122.4194155,68.0
Cleats,Perfect Fitness Perfect Rip Deck,San Francisco,USA,Second Class,Late delivery,High Risk,4,1,299.9500122,35.99000168,37.7749295,-122.4194155,68.0
Cleats,Perfect Fitness Perfect Rip Deck,Lafayette,USA,Second Class,Late delivery,High Risk,4,1,299.9500122,70.19000244,40.4167022,-86.87528689999999,68.0
Cleats,Perfect Fitness Perfect Rip Deck,Lafayette,USA,Second Class,Late delivery,High Risk,4,1,299.9500122,-60.45000076,40.4167022,-86.87528689999999,68.0
Cleats,Perfect Fitness Perfect Rip Deck,Louisville,USA,Second Class,Late delivery,High Risk,4,1,299.9500122,59.97000122,39.977763,-105.1319296,68.0
Women's Apparel,Nike Men's Dri-FIT Victory Golf Polo,Philadelphia,USA,Second Class,Late delivery,High Risk,4,1,250.0,44.0,39.9525839,-75.1652215,66.26
Shop By Sport,Under Armour Girls' Toddler Spine Surge Runni,Bellevue,USA,Second Class,Late delivery,High Risk,4,1,199.9499969,12.60000038,47.6101497,-122.2015159,67.9
Women's Apparel,Nike Men's Dri-FIT Victory Golf Polo,New York City,USA,Second Class,Late delivery,High Risk,4,1,250.0,96.0,40.7127753,-74.0059728,66.26
